00:00:40  $GPRMC,000040.00,A,6751.01391,N,02035.78295,E,0.013,,060220,,,A*7A
00:00:40  $GPVTG,,T,,M,0.013,N,0.023,K,A*20
00:00:40  $GPGGA,000040.00,6751.01391,N,02035.78295,E,1,11,0.80,-1.4,M,27.1,M,,*76
00:00:40  $GPGSA,A,3,11,30,01,32,20,28,24,10,15,27,08,,1.52,0.80,1.30*0B
00:00:40  $GPGSV,4,1,13,01,17,266,46,08,60,225,52,10,62,114,52,11,43,269,50*7C
00:00:40  $GPGSV,4,2,13,13,01,359,43,15,14,025,45,18,39,260,49,20,38,076,49*7E
00:00:40  $GPGSV,4,3,13,24,08,061,44,27,41,175,50,28,21,336,47,30,06,308,44*71
00:00:40  $GPGSV,4,4,13,32,16,142,46*48
00:00:40  $GPGLL,6751.01391,N,02035.78295,E,000040.00,A,A*67
00:00:41  $GPRMC,000041.00,A,6751.01386,N,02035.78291,E,0.006,,060220,,,A*7D
00:00:41  $GPVTG,,T,,M,0.006,N,0.010,K,A*24
00:00:41  $GPGGA,000041.00,6751.01386,N,02035.78291,E,1,11,0.80,-1.4,M,27.1,M,,*75
00:00:41  $GPGSA,A,3,11,30,01,32,20,28,24,10,15,27,08,,1.52,0.80,1.30*0B
00:00:41  $GPGSV,4,1,13,01,17,266,47,08,60,225,52,10,62,114,53,11,43,269,51*7D
00:00:41  $GPGSV,4,2,13,13,01,359,43,15,14,025,45,18,39,260,50,20,38,076,49*76
00:00:41  $GPGSV,4,3,13,24,08,061,45,27,41,175,50,28,21,336,47,30,06,308,44*70
00:00:41  $GPGSV,4,4,13,32,16,142,46*48
00:00:41  $GPGLL,6751.01386,N,02035.78291,E,000041.00,A,A*64
00:00:42  $GPRMC,000042.00,A,6751.01388,N,02035.78289,E,0.004,,060220,,,A*7B
00:00:42  $GPVTG,,T,,M,0.004,N,0.008,K,A*2F
00:00:42  $GPGGA,000042.00,6751.01388,N,02035.78289,E,1,11,0.80,-1.2,M,27.1,M,,*77
00:00:42  $GPGSA,A,3,11,30,01,32,20,28,24,10,15,27,08,,1.52,0.80,1.30*0B
00:00:42  $GPGSV,4,1,14,01,18,266,46,05,,,32,08,60,225,52,10,62,114,52*4F
00:00:42  $GPGSV,4,2,14,11,43,269,50,13,01,359,43,15,14,025,45,18,39,260,49*73
00:00:42  $GPGSV,4,3,14,20,38,076,49,24,08,061,44,27,41,175,50,28,21,336,47*7D
00:00:42  $GPGSV,4,4,14,30,06,308,44,32,16,142,46*71
00:00:42  $GPGLL,6751.01388,N,02035.78289,E,000042.00,A,A*60
00:00:43  $GPRMC,000043.00,A,6751.01389,N,02035.78288,E,0.007,,060220,,,A*79
00:00:43  $GPVTG,,T,,M,0.007,N,0.013,K,A*26
00:00:43  $GPGGA,000043.00,6751.01389,N,02035.78288,E,1,11,0.80,-1.1,M,27.1,M,,*75
00:00:43  $GPGSA,A,3,11,30,01,32,20,28,24,10,15,27,08,,1.52,0.80,1.30*0B
00:00:43  $GPGSV,4,1,13,01,18,266,46,08,60,225,52,10,62,114,52,11,43,269,50*73
00:00:43  $GPGSV,4,2,13,13,01,359,43,15,14,025,45,18,39,260,49,20,38,076,49*7E
00:00:43  $GPGSV,4,3,13,24,08,061,44,27,41,175,50,28,21,336,46,30,06,308,44*70
00:00:43  $GPGSV,4,4,13,32,16,142,46*48
00:00:43  $GPGLL,6751.01389,N,02035.78288,E,000043.00,A,A*61
00:00:44  $GPRMC,000044.00,A,6751.01391,N,02035.78288,E,0.011,,060220,,,A*70
00:00:44  $GPVTG,,T,,M,0.011,N,0.021,K,A*20
00:00:44  $GPGGA,000044.00,6751.01391,N,02035.78288,E,1,11,0.80,-0.9,M,27.1,M,,*72
00:00:44  $GPGSA,A,3,11,30,01,32,20,28,24,10,15,27,08,,1.52,0.80,1.30*0B
00:00:44  $GPGSV,4,1,13,01,18,266,46,08,60,225,51,10,62,114,52,11,43,269,50*70
00:00:44  $GPGSV,4,2,13,13,01,359,43,15,14,025,45,18,39,260,49,20,38,076,49*7E
00:00:44  $GPGSV,4,3,13,24,08,061,44,27,41,175,50,28,21,336,46,30,06,308,44*70
00:00:44  $GPGSV,4,4,13,32,16,142,45*4B
00:00:44  $GPGLL,6751.01391,N,02035.78288,E,000044.00,A,A*6F
00:00:45  $GPRMC,000045.00,A,6751.01396,N,02035.78291,E,0.008,,060220,,,A*76
00:00:45  $GPVTG,,T,,M,0.008,N,0.015,K,A*2F
00:00:45  $GPGGA,000045.00,6751.01396,N,02035.78291,E,1,11,0.80,-0.7,M,27.1,M,,*72
00:00:45  $GPGSA,A,3,11,30,01,32,20,28,24,10,15,27,08,,1.52,0.80,1.30*0B
00:00:45  $GPGSV,4,1,13,01,18,266,46,08,60,225,51,10,62,114,52,11,43,269,50*70
00:00:45  $GPGSV,4,2,13,13,01,359,43,15,14,025,45,18,39,260,49,20,38,076,49*7E
00:00:45  $GPGSV,4,3,13,24,08,061,44,27,41,175,50,28,21,336,46,30,06,308,44*70
00:00:45  $GPGSV,4,4,13,32,16,142,45*4B
00:00:45  $GPGLL,6751.01396,N,02035.78291,E,000045.00,A,A*61
00:01:55  $GPRMC,000155.00,A,5130.82870,N,00005.89897,W,0.001,,060719,,,A*6B
00:01:55  $GPVTG,,T,,M,0.001,N,0.003,K,A*21
00:01:55  $GPGGA,000155.00,5130.82870,N,00005.89897,W,1,08,0.94,-26.7,M,45.6,M,,*53
00:01:55  $GPGSA,A,3,30,28,13,15,21,02,05,09,,,,,1.45,0.94,1.11*0C
00:01:55  $GPGSV,3,1,10,02,15,221,39,04,36,088,42,05,71,249,47,09,16,092,39*70
00:01:55  $GPGSV,3,2,10,13,43,272,44,15,09,278,38,21,07,336,37,27,03,031,37*76
00:01:55  $GPGSV,3,3,10,28,18,143,40,30,72,102,46*7E
00:01:55  $GPGLL,5130.82870,N,00005.89897,W,000155.00,A,A*7A
00:01:56  $GPRMC,000156.00,A,5130.82858,N,00005.89905,W,0.036,,060719,,,A*6C
00:01:56  $GPVTG,,T,,M,0.036,N,0.067,K,A*27
00:01:56  $GPGGA,000156.00,5130.82858,N,00005.89905,W,1,08,0.94,-26.7,M,45.6,M,,*50
00:01:56  $GPGSA,A,3,30,28,13,15,21,02,05,09,,,,,1.45,0.94,1.11*0C
00:01:56  $GPGSV,3,1,10,02,15,221,39,04,36,088,43,05,71,249,47,09,16,092,39*71
00:01:56  $GPGSV,3,2,10,13,43,272,43,15,09,278,38,21,07,336,38,27,03,031,37*7E
00:01:56  $GPGSV,3,3,10,28,18,143,39,30,72,102,47*71
00:01:56  $GPGLL,5130.82858,N,00005.89905,W,000156.00,A,A*79
00:01:57  $GPRMC,000157.00,A,5130.82855,N,00005.89913,W,0.016,,060719,,,A*65
00:01:57  $GPVTG,,T,,M,0.016,N,0.030,K,A*27
00:01:57  $GPGGA,000157.00,5130.82855,N,00005.89913,W,1,08,0.94,-26.8,M,45.6,M,,*54
00:01:57  $GPGSA,A,3,30,28,13,15,21,02,05,09,,,,,1.45,0.94,1.11*0C
00:01:57  $GPGSV,3,1,10,02,15,221,39,04,36,088,43,05,71,249,47,09,16,092,40*7F
00:01:57  $GPGSV,3,2,10,13,43,272,44,15,09,278,37,21,07,336,37,27,03,031,37*79
00:01:57  $GPGSV,3,3,10,28,18,143,39,30,72,102,47*71
00:01:57  $GPGLL,5130.82855,N,00005.89913,W,000157.00,A,A*72
00:01:58  $GPRMC,000158.00,A,5130.82843,N,00005.89911,W,0.028,,060719,,,A*62
00:01:58  $GPVTG,,T,,M,0.028,N,0.052,K,A*2E
00:01:58  $GPGGA,000158.00,5130.82843,N,00005.89911,W,1,08,0.94,-26.6,M,45.6,M,,*50
00:01:58  $GPGSA,A,3,30,28,13,15,21,02,05,09,,,,,1.45,0.94,1.11*0C
00:01:58  $GPGSV,3,1,10,02,15,221,40,04,36,088,43,05,71,249,47,09,16,092,40*71
00:01:58  $GPGSV,3,2,10,13,43,272,44,15,09,278,39,21,07,336,38,27,03,031,37*78
00:01:58  $GPGSV,3,3,10,28,18,143,40,30,72,102,47*7F
00:01:58  $GPGLL,5130.82843,N,00005.89911,W,000158.00,A,A*78
00:01:59  $GPRMC,000159.00,A,5130.82834,N,00005.89916,W,0.020,,060719,,,A*6C
00:01:59  $GPVTG,,T,,M,0.020,N,0.037,K,A*25
00:01:59  $GPGGA,000159.00,5130.82834,N,00005.89916,W,1,08,0.94,-26.3,M,45.6,M,,*53
00:01:59  $GPGSA,A,3,30,28,13,15,21,02,05,09,,,,,1.45,0.94,1.11*0C
00:01:59  $GPGSV,3,1,10,02,15,221,39,04,36,088,43,05,71,249,47,09,16,092,40*7F
00:01:59  $GPGSV,3,2,10,13,43,272,44,15,09,278,38,21,07,336,38,27,03,031,37*79
00:01:59  $GPGSV,3,3,10,28,18,143,40,30,72,102,47*7F
00:01:59  $GPGLL,5130.82834,N,00005.89916,W,000159.00,A,A*7E
00:02:00  $GPRMC,000200.00,A,5130.82824,N,00005.89920,W,0.012,,060719,,,A*66
00:02:00  $GPVTG,,T,,M,0.012,N,0.022,K,A*20
00:02:00  $GPGGA,000200.00,5130.82824,N,00005.89920,W,1,08,0.94,-26.1,M,45.6,M,,*5A
00:02:00  $GPGSA,A,3,30,28,13,15,21,02,05,09,,,,,1.45,0.94,1.11*0C
00:02:00  $GPGSV,3,1,10,02,15,221,39,04,36,088,43,05,71,249,47,09,16,092,40*7F
00:02:00  $GPGSV,3,2,10,13,43,272,44,15,09,278,38,21,07,336,38,27,03,031,37*79
00:02:00  $GPGSV,3,3,10,28,18,143,40,30,72,102,47*7F
00:02:00  $GPGLL,5130.82824,N,00005.89920,W,000200.00,A,A*75
04:51:44  $GPRMC,045144.00,V,,,,,,,030920,,,N*75
04:51:44  $GPVTG,,,,,,,,,N*30
04:51:44  $GPGNS,045144.00,,,,,NN,00,99.99,,,,*4D
04:51:44  $GPGGA,045144.00,,,,,0,00,99.99,,,,,,*66
04:51:44  $GPGSA,A,1,,,,,,,,,,,,,99.99,99.99,99.99*30
04:51:44  $GPGLL,,,,,045144.00,V,N*4A
04:51:44  $GPGST,045144.00,0.0000,,,,215536,215536,215536*61
04:51:44  $GPZDA,045144.00,03,09,2020,00,00*6C
04:51:45  $GPRMC,045145.00,V,,,,,,,030920,,,N*74
04:51:45  $GPVTG,,,,,,,,,N*30
04:51:45  $GPGNS,045145.00,,,,,NN,00,99.99,,,,*4C
04:51:45  $GPGGA,045145.00,,,,,0,00,99.99,,,,,,*67
04:51:45  $GPGSA,A,1,,,,,,,,,,,,,99.99,99.99,99.99*30
04:51:45  $GPGLL,,,,,045145.00,V,N*4B
04:51:45  $GPGST,045145.00,0.0000,,,,215555,215555,215555*65
04:51:45  $GPZDA,045145.00,03,09,2020,00,00*6D
04:51:46  $GPRMC,045146.00,V,,,,,,,030920,,,N*77
04:51:46  $GPVTG,,,,,,,,,N*30
04:51:46  $GPGNS,045146.00,,,,,NN,00,99.99,,,,*4F
04:51:46  $GPGGA,045146.00,,,,,0,00,99.99,,,,,,*64
04:51:46  $GPGSA,A,1,,,,,,,,,,,,,99.99,99.99,99.99*30
04:51:46  $GPGLL,,,,,045146.00,V,N*48
04:51:46  $GPGST,045146.00,0.0000,,,,215575,215575,215575*64
04:51:46  $GPZDA,045146.00,03,09,2020,00,00*6E
04:51:47  $GPRMC,045147.00,V,,,,,,,030920,,,N*76
04:51:47  $GPVTG,,,,,,,,,N*30
04:51:47  $GPGNS,045147.00,,,,,NN,00,99.99,,,,*4E
04:51:47  $GPGGA,045147.00,,,,,0,00,99.99,,,,,,*65
04:51:47  $GPGSA,A,1,,,,,,,,,,,,,99.99,99.99,99.99*30
04:51:47  $GPGLL,,,,,045147.00,V,N*49
04:51:47  $GPGST,045147.00,0.0000,,,,215594,215594,215594*6A
04:51:47  $GPZDA,045147.00,03,09,2020,00,00*6F
00:03:20  $GPRMC,000320.00,A,3353.30356,S,15111.30603,E,0.017,,151121,,,A*6B
00:03:20  $GPVTG,,T,,M,0.017,N,0.032,K,A*24
00:03:20  $GPGNS,000320.00,3353.30356,S,15111.30603,E,AN,09,0.96,24.2,19.2,,*5B
00:03:20  $GPGGA,000320.00,3353.30356,S,15111.30603,E,1,09,0.96,24.2,M,19.2,M,,*7E
00:03:20  $GPGSA,A,3,12,14,17,19,24,15,30,06,02,,,,1.94,0.96,1.68*03
00:03:20  $GPGSV,3,1,12,01,00,149,43,02,22,349,47,06,53,038,51,11,26,001,47*74
00:03:20  $GPGSV,3,2,12,12,15,245,45,14,31,093,48,15,13,294,45,17,42,140,50*77
00:03:20  $GPGSV,3,3,12,19,66,158,53,24,40,233,50,28,46,111,51,30,09,031,44*78
00:03:20  $GPGLL,3353.30356,S,15111.30603,E,000320.00,A,A*73
00:03:20  $GPGST,000320.00,85,,,,18,15,48*74
00:03:20  $GPZDA,000320.00,15,11,2021,00,00*62
00:03:21  $GPRMC,000321.00,A,3353.30358,S,15111.30600,E,0.023,,151121,,,A*60
00:03:21  $GPVTG,,T,,M,0.023,N,0.043,K,A*25
00:03:21  $GPGNS,000321.00,3353.30358,S,15111.30600,E,AN,09,0.96,24.6,19.2,,*53
00:03:21  $GPGGA,000321.00,3353.30358,S,15111.30600,E,1,09,0.96,24.6,M,19.2,M,,*76
00:03:21  $GPGSA,A,3,12,14,17,19,24,15,30,06,02,,,,1.94,0.96,1.68*03
00:03:21  $GPGSV,3,1,12,01,00,149,43,02,22,349,46,06,53,038,51,11,26,001,47*75
00:03:21  $GPGSV,3,2,12,12,15,245,44,14,31,093,48,15,13,294,45,17,42,140,50*76
00:03:21  $GPGSV,3,3,12,19,66,158,52,24,40,233,49,28,46,111,50,30,09,031,43*77
00:03:21  $GPGLL,3353.30358,S,15111.30600,E,000321.00,A,A*7F
00:03:21  $GPGST,000321.00,83,,,,18,15,48*73
00:03:21  $GPZDA,000321.00,15,11,2021,00,00*63
00:03:22  $GPRMC,000322.00,A,3353.30363,S,15111.30600,E,0.014,,151121,,,A*6F
00:03:22  $GPVTG,,T,,M,0.014,N,0.025,K,A*21
00:03:22  $GPGNS,000322.00,3353.30363,S,15111.30600,E,AN,09,0.96,24.8,19.2,,*56
00:03:22  $GPGGA,000322.00,3353.30363,S,15111.30600,E,1,09,0.96,24.8,M,19.2,M,,*73
00:03:22  $GPGSA,A,3,12,14,17,19,24,15,30,06,02,,,,1.94,0.96,1.68*03
00:03:22  $GPGSV,3,1,12,01,00,149,42,02,22,349,46,06,53,038,50,11,26,001,47*75
00:03:22  $GPGSV,3,2,12,12,15,245,44,14,31,093,47,15,13,294,44,17,42,140,50*78
00:03:22  $GPGSV,3,3,12,19,66,158,52,24,40,233,49,28,46,111,50,30,09,031,43*77
00:03:22  $GPGLL,3353.30363,S,15111.30600,E,000322.00,A,A*74
00:03:22  $GPGST,000322.00,81,,,,19,15,48*73
00:03:22  $GPZDA,000322.00,15,11,2021,00,00*60
00:03:23  $GPRMC,000323.00,A,3353.30370,S,15111.30603,E,0.011,,151121,,,A*6A
00:03:23  $GPVTG,,T,,M,0.011,N,0.020,K,A*21
00:03:23  $GPGNS,000323.00,3353.30370,S,15111.30603,E,AN,09,0.96,24.9,19.2,,*57
00:03:23  $GPGGA,000323.00,3353.30370,S,15111.30603,E,1,09,0.96,24.9,M,19.2,M,,*72
00:03:23  $GPGSA,A,3,12,14,17,19,24,15,30,06,02,,,,1.94,0.96,1.68*03
00:03:23  $GPGSV,3,1,12,01,00,149,42,02,22,349,46,06,53,038,50,11,26,001,47*75
00:03:23  $GPGSV,3,2,12,12,15,245,45,14,31,093,48,15,13,294,45,17,42,140,50*77
00:03:23  $GPGSV,3,3,12,19,66,158,52,24,40,233,49,28,46,111,50,30,09,031,43*77
00:03:23  $GPGLL,3353.30370,S,15111.30603,E,000323.00,A,A*74
00:03:23  $GPGST,000323.00,82,,,,19,15,48*71
00:03:23  $GPZDA,000323.00,15,11,2021,00,00*61
??:??:??  $GPRMC,,V,,,,,,,,,,N*53
??:??:??  $GPVTG,,,,,,,,,N*30
??:??:??  $GPGNS,,,,,,NN,00,99.99,,,,*63
??:??:??  $GPGGA,,,,,,0,00,99.99,,,,,,*48
??:??:??  $GPGSA,A,1,,,,,,,,,,,,,99.99,99.99,99.99*30
??:??:??  $GPGSV,1,1,01,22,,,07*7F
??:??:??  $GPGLL,,,,,,V,N*64
??:??:??  $GPGST,,0.0000,,,,3750003,3750003,3750003*7B
??:??:??  $GPZDA,,,,,00,00*48
??:??:??  $GPRMC,,V,,,,,,,,,,N*53
??:??:??  $GPVTG,,,,,,,,,N*30
??:??:??  $GPGNS,,,,,,NN,00,99.99,,,,*63
??:??:??  $GPGGA,,,,,,0,00,99.99,,,,,,*48
??:??:??  $GPGSA,A,1,,,,,,,,,,,,,99.99,99.99,99.99*30
??:??:??  $GPGSV,1,1,01,22,,,08*70
??:??:??  $GPGLL,,,,,,V,N*64
??:??:??  $GPGST,,0.0000,,,,3750003,3750003,3750003*7B
??:??:??  $GPZDA,,,,,00,00*48
??:??:??  $GPRMC,,V,,,,,,,,,,N*53
??:??:??  $GPVTG,,,,,,,,,N*30
??:??:??  $GPGNS,,,,,,NN,00,99.99,,,,*63
??:??:??  $GPGGA,,,,,,0,00,99.99,,,,,,*48
??:??:??  $GPGSA,A,1,,,,,,,,,,,,,99.99,99.99,99.99*30
??:??:??  $GPGSV,1,1,01,22,,,10*79
??:??:??  $GPGLL,,,,,,V,N*64
??:??:??  $GPGST,,0.0000,,,,3750003,3750003,3750003*7B
??:??:??  $GPZDA,,,,,00,00*48
??:??:??  $GPRMC,,V,,,,,,,,,,N*53
??:??:??  $GPVTG,,,,,,,,,N*30
??:??:??  $GPGNS,,,,,,NN,00,99.99,,,,*63
??:??:??  $GPGGA,,,,,,0,00,99.99,,,,,,*48
??:??:??  $GPGSA,A,1,,,,,,,,,,,,,99.99,99.99,99.99*30
??:??:??  $GPGSV,1,1,01,22,,,10*79
??:??:??  $GPGLL,,,,,,V,N*64
??:??:??  $GPGST,,0.0000,,,,3750003,3750003,3750003*7B
??:??:??  $GPZDA,,,,,00,00*48