14:02:28  $GPRMC,140228.00,V,,,,,,,160623,,,N*70
14:02:28  $GPVTG,,,,,,,,,N*30
14:02:28  $GPGGA,140228.00,,,,,0,00,99.99,,,,,,*6B
14:02:28  $GPGSA,A,1,,,,,,,,,,,,,99.99,99.99,99.99*30
14:02:28  $GPGSV,3,1,12,01,62,283,24,02,75,249,25,03,23,249,,08,23,197,*71
14:02:28  $GPGSV,3,2,12,10,24,075,,14,11,290,,17,17,323,,21,77,201,*72
14:02:28  $GPGSV,3,3,12,24,08,015,15,27,00,176,,28,09,121,,32,54,089,*71
14:02:28  $GPGLL,,,,,140228.00,V,N*47
14:02:28  $GPZDA,140228.00,16,06,2023,00,00*69
14:02:29  $GPRMC,140229.00,V,,,,,,,160623,,,N*71
14:02:29  $GPVTG,,,,,,,,,N*30
14:02:29  $GPGGA,140229.00,,,,,0,00,99.99,,,,,,*6A
14:02:29  $GPGSA,A,1,,,,,,,,,,,,,99.99,99.99,99.99*30
14:02:29  $GPGSV,3,1,12,01,62,283,25,02,75,249,25,03,23,249,16,08,23,197,*77
14:02:29  $GPGSV,3,2,12,10,24,075,,14,11,290,,17,18,323,,21,77,201,*7D
14:02:29  $GPGSV,3,3,12,24,08,015,18,27,00,176,,28,09,121,,32,54,089,*7C
14:02:29  $GPGLL,,,,,140229.00,V,N*46
14:02:29  $GPZDA,140229.00,16,06,2023,00,00*68
14:02:30  $GPRMC,140230.00,V,,,,,,,160623,,,N*79
14:02:30  $GPVTG,,,,,,,,,N*30
14:02:30  $GPGGA,140230.00,,,,,0,00,99.99,,,,,,*62
14:02:30  $GPGSA,A,1,,,,,,,,,,,,,99.99,99.99,99.99*30
14:02:30  $GPGSV,3,1,12,01,62,283,24,02,75,249,26,03,23,249,16,08,23,197,*75
14:02:30  $GPGSV,3,2,12,10,24,075,,14,11,290,,17,18,323,,21,77,201,*7D
14:02:30  $GPGSV,3,3,12,24,08,015,18,27,00,176,,28,09,121,,32,54,089,*7C
14:02:30  $GPGLL,,,,,140230.00,V,N*4E
14:02:30  $GPZDA,140230.00,16,06,2023,00,00*60
14:02:31  $GPRMC,140231.00,V,,,,,,,160623,,,N*78
14:02:31  $GPVTG,,,,,,,,,N*30
14:02:31  $GPGGA,140231.00,,,,,0,00,99.99,,,,,,*63
14:02:31  $GPGSA,A,1,,,,,,,,,,,,,99.99,99.99,99.99*30
14:02:31  $GPGSV,3,1,12,01,62,283,25,02,75,249,26,03,23,249,15,08,23,197,*77
14:02:31  $GPGSV,3,2,12,10,24,075,,14,11,290,,17,18,323,,21,77,201,*7D
14:02:31  $GPGSV,3,3,12,24,08,015,18,27,00,176,,28,09,121,,32,54,089,*7C
14:02:31  $GPGLL,,,,,140231.00,V,N*4F
14:02:31  $GPZDA,140231.00,16,06,2023,00,00*61
14:02:32  $GPRMC,140232.00,V,,,,,,,160623,,,N*7B
14:02:32  $GPVTG,,,,,,,,,N*30
14:02:32  $GPGGA,140232.00,,,,,0,00,99.99,,,,,,*60
14:02:32  $GPGSA,A,1,,,,,,,,,,,,,99.99,99.99,99.99*30
14:02:32  $GPGSV,3,1,12,01,62,283,24,02,75,249,26,03,23,249,16,08,23,197,*75
14:02:32  $GPGSV,3,2,12,10,24,075,,14,11,290,,17,18,323,,21,77,201,*7D
14:02:32  $GPGSV,3,3,12,24,08,015,18,27,00,176,,28,09,121,,32,54,089,*7C
14:02:32  $GPGLL,,,,,140232.00,V,N*4C
14:02:32  $GPZDA,140232.00,16,06,2023,00,00*62
14:02:33  $GPRMC,140233.00,V,,,,,,,160623,,,N*7A
14:02:33  $GPVTG,,,,,,,,,N*30
14:02:33  $GPGGA,140233.00,,,,,0,00,99.99,,,,,,*61
14:02:33  $GPGSA,A,1,,,,,,,,,,,,,99.99,99.99,99.99*30
14:02:33  $GPGSV,3,1,12,01,62,283,24,02,75,249,26,03,23,249,16,08,23,197,*75
14:02:33  $GPGSV,3,2,12,10,24,075,,14,11,290,,17,18,323,,21,77,201,*7D
14:02:33  $GPGSV,3,3,12,24,08,015,17,27,00,176,,28,09,121,,32,54,089,*73
14:02:33  $GPGLL,,,,,140233.00,V,N*4D
14:02:33  $GPZDA,140233.00,16,06,2023,00,00*63
14:02:34  $GPRMC,140234.00,V,,,,,,,160623,,,N*7D
14:02:34  $GPVTG,,,,,,,,,N*30
14:02:34  $GPGGA,140234.00,,,,,0,00,99.99,,,,,,*66
14:02:34  $GPGSA,A,1,,,,,,,,,,,,,99.99,99.99,99.99*30
14:02:34  $GPGSV,3,1,12,01,62,283,24,02,75,249,26,03,23,249,16,08,23,197,*75
14:02:34  $GPGSV,3,2,12,10,24,075,,14,11,290,,17,18,323,,21,77,201,*7D
14:02:34  $GPGSV,3,3,12,24,08,015,16,27,00,176,,28,09,121,,32,54,089,*72
14:02:34  $GPGLL,,,,,140234.00,V,N*4A
14:02:34  $GPZDA,140234.00,16,06,2023,00,00*64
14:02:35  $GPRMC,140235.00,V,,,,,,,160623,,,N*7C
14:02:35  $GPVTG,,,,,,,,,N*30
14:02:35  $GPGGA,140235.00,,,,,0,00,99.99,,,,,,*67
14:02:35  $GPGSA,A,1,,,,,,,,,,,,,99.99,99.99,99.99*30
14:02:35  $GPGSV,3,1,12,01,62,283,23,02,75,249,25,03,23,249,15,08,23,197,*72
14:02:35  $GPGSV,3,2,12,10,24,075,,14,11,290,,17,18,323,,21,77,201,*7D
14:02:35  $GPGSV,3,3,12,24,08,015,15,27,00,176,,28,09,121,,32,54,089,*71
14:02:35  $GPGLL,,,,,140235.00,V,N*4B
14:02:35  $GPZDA,140235.00,16,06,2023,00,00*65
14:02:36  $GPRMC,140236.00,V,,,,,,,160623,,,N*7F
14:02:36  $GPVTG,,,,,,,,,N*30
14:02:36  $GPGGA,140236.00,,,,,0,00,99.99,,,,,,*64
14:02:36  $GPGSA,A,1,,,,,,,,,,,,,99.99,99.99,99.99*30
14:02:36  $GPGSV,3,1,12,01,62,283,23,02,75,249,25,03,23,249,15,08,23,197,*72
14:02:36  $GPGSV,3,2,12,10,24,075,,14,11,290,,17,18,323,,21,77,201,*7D
14:02:36  $GPGSV,3,3,12,24,08,015,15,27,00,176,,28,09,121,,32,54,088,*70
14:02:36  $GPGLL,,,,,140236.00,V,N*48
14:02:36  $GPZDA,140236.00,16,06,2023,00,00*66
14:02:37  $GPRMC,140237.00,V,,,,,,,160623,,,N*7E
14:02:37  $GPVTG,,,,,,,,,N*30
14:02:37  $GPGGA,140237.00,,,,,0,00,99.99,,,,,,*65
14:02:37  $GPGSA,A,1,,,,,,,,,,,,,99.99,99.99,99.99*30
14:02:37  $GPGSV,3,1,12,01,62,283,23,02,75,249,25,03,23,249,16,08,23,197,*71
14:02:37  $GPGSV,3,2,12,10,24,075,,14,11,290,,17,18,323,,21,77,201,*7D
14:02:37  $GPGSV,3,3,12,24,08,015,16,27,00,176,,28,09,121,,32,54,088,*73
14:02:37  $GPGLL,,,,,140237.00,V,N*49
14:02:37  $GPZDA,140237.00,16,06,2023,00,00*67
14:02:38  $GPRMC,140238.00,V,,,,,,,160623,,,N*71
14:02:38  $GPVTG,,,,,,,,,N*30
14:02:38  $GPGGA,140238.00,,,,,0,00,99.99,,,,,,*6A
14:02:38  $GPGSA,A,1,,,,,,,,,,,,,99.99,99.99,99.99*30
14:02:38  $GPGSV,3,1,12,01,62,283,23,02,75,249,25,03,23,249,17,08,23,197,*70
14:02:38  $GPGSV,3,2,12,10,24,075,,14,11,290,,17,18,323,,21,77,201,*7D
14:02:38  $GPGSV,3,3,12,24,08,015,16,27,00,176,,28,09,121,,32,54,088,*73
14:02:38  $GPGLL,,,,,140238.00,V,N*46
14:02:38  $GPZDA,140238.00,16,06,2023,00,00*68
14:02:39  $GPRMC,140239.00,V,,,,,,,160623,,,N*70
14:02:39  $GPVTG,,,,,,,,,N*30
14:02:39  $GPGGA,140239.00,,,,,0,00,99.99,,,,,,*6B
14:02:39  $GPGSA,A,1,,,,,,,,,,,,,99.99,99.99,99.99*30
14:02:39  $GPGSV,3,1,12,01,62,283,22,02,75,249,26,03,23,249,16,08,23,197,*73
14:02:39  $GPGSV,3,2,12,10,24,075,,14,11,290,,17,18,323,,21,77,201,*7D
14:02:39  $GPGSV,3,3,12,24,08,015,15,27,00,176,,28,09,121,,32,54,088,*70
14:02:39  $GPGLL,,,,,140239.00,V,N*47
14:02:39  $GPZDA,140239.00,16,06,2023,00,00*69
14:02:40  $GPRMC,140240.00,V,,,,,,,160623,,,N*7E
14:02:40  $GPVTG,,,,,,,,,N*30
14:02:40  $GPGGA,140240.00,,,,,0,00,99.99,,,,,,*65
14:02:40  $GPGSA,A,1,,,,,,,,,,,,,99.99,99.99,99.99*30
14:02:40  $GPGSV,3,1,12,01,62,283,22,02,75,249,26,03,23,249,16,08,23,197,*73
14:02:40  $GPGSV,3,2,12,10,24,075,,14,11,290,,17,18,323,,21,77,201,*7D
14:02:40  $GPGSV,3,3,12,24,08,015,18,27,00,176,,28,09,121,,32,54,088,*7D
14:02:40  $GPGLL,,,,,140240.00,V,N*49
14:02:40  $GPZDA,140240.00,16,06,2023,00,00*67
14:02:41  $GPRMC,140241.00,V,,,,,,,160623,,,N*7F
14:02:41  $GPVTG,,,,,,,,,N*30
14:02:41  $GPGGA,140241.00,,,,,0,00,99.99,,,,,,*64
14:02:41  $GPGSA,A,1,,,,,,,,,,,,,99.99,99.99,99.99*30
14:02:41  $GPGSV,3,1,12,01,62,283,21,02,75,249,26,03,23,249,16,08,23,197,*70
14:02:41  $GPGSV,3,2,12,10,24,075,,14,11,290,,17,18,323,,21,77,201,*7D
14:02:41  $GPGSV,3,3,12,24,08,015,18,27,00,176,,28,09,121,,32,54,088,*7D
14:02:41  $GPGLL,,,,,140241.00,V,N*48
14:02:41  $GPZDA,140241.00,16,06,2023,00,00*66
14:02:42  $GPRMC,140242.00,V,,,,,,,160623,,,N*7C
14:02:42  $GPVTG,,,,,,,,,N*30
14:02:42  $GPGGA,140242.00,,,,,0,00,99.99,,,,,,*67
14:02:42  $GPGSA,A,1,,,,,,,,,,,,,99.99,99.99,99.99*30
14:02:42  $GPGSV,3,1,12,01,62,283,21,02,75,249,25,03,23,249,15,08,23,197,*70
14:02:42  $GPGSV,3,2,12,10,24,075,,14,11,290,,17,18,323,,21,77,201,*7D
14:02:42  $GPGSV,3,3,12,24,08,015,17,27,00,176,,28,09,121,,32,54,088,*72
14:02:42  $GPGLL,,,,,140242.00,V,N*4B
14:02:42  $GPZDA,140242.00,16,06,2023,00,00*65
14:02:43  $GPRMC,140243.00,V,,,,,,,160623,,,N*7D
14:02:43  $GPVTG,,,,,,,,,N*30
14:02:43  $GPGGA,140243.00,,,,,0,00,99.99,,,,,,*66
14:02:43  $GPGSA,A,1,,,,,,,,,,,,,99.99,99.99,99.99*30
14:02:43  $GPGSV,3,1,12,01,63,283,21,02,75,249,26,03,23,249,15,08,23,197,*72
14:02:43  $GPGSV,3,2,12,10,24,075,,14,11,290,,17,18,323,,21,77,201,*7D
14:02:43  $GPGSV,3,3,12,24,08,015,16,27,00,176,,28,09,121,,32,54,088,*73
14:02:43  $GPGLL,,,,,140243.00,V,N*4A
14:02:43  $GPZDA,140243.00,16,06,2023,00,00*64
14:02:44  $GPRMC,140244.00,V,,,,,,,160623,,,N*7A
14:02:44  $GPVTG,,,,,,,,,N*30
14:02:44  $GPGGA,140244.00,,,,,0,00,99.99,,,,,,*61
14:02:44  $GPGSA,A,1,,,,,,,,,,,,,99.99,99.99,99.99*30
14:02:44  $GPGSV,3,1,12,01,63,283,21,02,75,249,26,03,23,249,13,08,23,197,*74
14:02:44  $GPGSV,3,2,12,10,24,075,,14,11,290,,17,18,323,,21,77,201,*7D
14:02:44  $GPGSV,3,3,12,24,08,015,15,27,00,176,,28,09,121,,32,54,088,*70
14:02:44  $GPGLL,,,,,140244.00,V,N*4D
14:02:44  $GPZDA,140244.00,16,06,2023,00,00*63
14:02:45  $GPRMC,140245.00,V,,,,,,,160623,,,N*7B
14:02:45  $GPVTG,,,,,,,,,N*30
14:02:45  $GPGGA,140245.00,,,,,0,00,99.99,,,,,,*60
14:02:45  $GPGSA,A,1,,,,,,,,,,,,,99.99,99.99,99.99*30
14:02:45  $GPGSV,3,1,12,01,63,283,22,02,75,249,26,03,23,249,13,08,23,197,*77
14:02:45  $GPGSV,3,2,12,10,24,075,,14,11,290,,17,18,323,,21,77,201,*7D
14:02:45  $GPGSV,3,3,12,24,08,015,14,27,00,176,,28,09,121,,32,54,088,*71
14:02:45  $GPGLL,,,,,140245.00,V,N*4C
14:02:45  $GPZDA,140245.00,16,06,2023,00,00*62
14:02:46  $GPRMC,140246.00,V,,,,,,,160623,,,N*78
14:02:46  $GPVTG,,,,,,,,,N*30
14:02:46  $GPGGA,140246.00,,,,,0,00,99.99,,,,,,*63
14:02:46  $GPGSA,A,1,,,,,,,,,,,,,99.99,99.99,99.99*30
14:02:46  $GPGSV,3,1,12,01,63,283,22,02,75,249,27,03,23,249,12,08,23,197,*77
14:02:46  $GPGSV,3,2,12,10,24,075,,14,11,290,,17,18,323,,21,77,201,*7D
14:02:46  $GPGSV,3,3,12,24,08,015,15,27,00,176,,28,09,121,,32,54,088,*70
14:02:46  $GPGLL,,,,,140246.00,V,N*4F
14:02:46  $GPZDA,140246.00,16,06,2023,00,00*61
14:02:47  $GPRMC,140247.00,V,,,,,,,160623,,,N*79
14:02:47  $GPVTG,,,,,,,,,N*30
14:02:47  $GPGGA,140247.00,,,,,0,00,99.99,,,,,,*62
14:02:47  $GPGSA,A,1,,,,,,,,,,,,,99.99,99.99,99.99*30
14:02:47  $GPGSV,3,1,12,01,63,283,22,02,75,249,27,03,23,249,10,08,23,197,*75
14:02:47  $GPGSV,3,2,12,10,24,075,,14,11,290,,17,18,323,,21,77,201,*7D
14:02:47  $GPGSV,3,3,12,24,08,015,15,27,00,176,,28,09,121,,32,54,088,*70
14:02:47  $GPGLL,,,,,140247.00,V,N*4E
14:02:47  $GPZDA,140247.00,16,06,2023,00,00*60
14:02:48  $GPRMC,140248.00,V,,,,,,,160623,,,N*76
14:02:48  $GPVTG,,,,,,,,,N*30
14:02:48  $GPGGA,140248.00,,,,,0,00,99.99,,,,,,*6D
14:02:48  $GPGSA,A,1,,,,,,,,,,,,,99.99,99.99,99.99*30
14:02:48  $GPGSV,3,1,12,01,63,283,22,02,75,249,26,03,23,249,09,08,23,197,*7C
14:02:48  $GPGSV,3,2,12,10,24,075,,14,11,290,,17,18,323,,21,77,201,*7D
14:02:48  $GPGSV,3,3,12,24,08,015,16,27,00,176,,28,09,121,,32,54,088,*73
14:02:48  $GPGLL,,,,,140248.00,V,N*41
14:02:48  $GPZDA,140248.00,16,06,2023,00,00*6F
14:02:49  $GPRMC,140249.00,V,,,,,,,160623,,,N*77
14:02:49  $GPVTG,,,,,,,,,N*30
14:02:49  $GPGGA,140249.00,,,,,0,00,99.99,,,,,,*6C
14:02:49  $GPGSA,A,1,,,,,,,,,,,,,99.99,99.99,99.99*30
14:02:49  $GPGSV,3,1,12,01,63,283,22,02,75,249,26,03,23,249,08,08,23,197,*7D
14:02:49  $GPGSV,3,2,12,10,24,075,,14,11,290,,17,18,323,,21,77,201,*7D
14:02:49  $GPGSV,3,3,12,24,08,015,16,27,00,176,,28,09,121,,32,54,088,*73
14:02:49  $GPGLL,,,,,140249.00,V,N*40
14:02:49  $GPZDA,140249.00,16,06,2023,00,00*6E
14:02:50  $GPRMC,140250.00,V,,,,,,,160623,,,N*7F
14:02:50  $GPVTG,,,,,,,,,N*30
14:02:50  $GPGGA,140250.00,,,,,0,00,99.99,,,,,,*64
14:02:50  $GPGSA,A,1,,,,,,,,,,,,,99.99,99.99,99.99*30
14:02:50  $GPGSV,3,1,12,01,63,283,21,02,75,249,26,03,23,249,09,08,23,197,*7F
14:02:50  $GPGSV,3,2,12,10,24,075,,14,11,290,,17,18,323,,21,77,201,*7D
14:02:50  $GPGSV,3,3,12,24,08,015,16,27,00,176,,28,09,121,,32,54,088,*73
14:02:50  $GPGLL,,,,,140250.00,V,N*48
14:02:50  $GPZDA,140250.00,16,06,2023,00,00*66
14:02:51  $GPRMC,140251.00,V,,,,,,,160623,,,N*7E
14:02:51  $GPVTG,,,,,,,,,N*30
14:02:51  $GPGGA,140251.00,,,,,0,00,99.99,,,,,,*65
14:02:51  $GPGSA,A,1,,,,,,,,,,,,,99.99,99.99,99.99*30
14:02:51  $GPGSV,3,1,12,01,63,283,22,02,75,249,26,03,23,249,08,08,23,197,*7D
14:02:51  $GPGSV,3,2,12,10,24,075,,14,11,290,,17,18,323,,21,77,201,*7D
14:02:51  $GPGSV,3,3,12,24,08,015,17,27,00,176,,28,09,121,,32,54,088,*72
14:02:51  $GPGLL,,,,,140251.00,V,N*49
14:02:51  $GPZDA,140251.00,16,06,2023,00,00*67
14:02:52  $GPRMC,140252.00,V,,,,,,,160623,,,N*7D
14:02:52  $GPVTG,,,,,,,,,N*30
14:02:52  $GPGGA,140252.00,,,,,0,00,99.99,,,,,,*66
14:02:52  $GPGSA,A,1,,,,,,,,,,,,,99.99,99.99,99.99*30
14:02:52  $GPGSV,3,1,12,01,63,283,22,02,75,249,26,03,23,249,10,08,23,197,*74
14:02:52  $GPGSV,3,2,12,10,24,075,,14,11,290,,17,18,323,,21,77,201,*7D
14:02:52  $GPGSV,3,3,12,24,08,015,17,27,00,176,,28,09,121,,32,54,088,*72
14:02:52  $GPGLL,,,,,140252.00,V,N*4A
14:02:52  $GPZDA,140252.00,16,06,2023,00,00*64
14:02:53  $GPRMC,140253.00,V,,,,,,,160623,,,N*7C
14:02:53  $GPVTG,,,,,,,,,N*30
14:02:53  $GPGGA,140253.00,,,,,0,00,99.99,,,,,,*67
14:02:53  $GPGSA,A,1,,,,,,,,,,,,,99.99,99.99,99.99*30
14:02:53  $GPGSV,3,1,12,01,63,283,22,02,75,249,26,03,23,249,10,08,23,197,*74
14:02:53  $GPGSV,3,2,12,10,24,075,,14,11,290,,17,18,323,,21,76,200,*7D
14:02:53  $GPGSV,3,3,12,24,08,015,18,27,00,176,,28,09,121,,32,54,088,*7D
14:02:53  $GPGLL,,,,,140253.00,V,N*4B
14:02:53  $GPZDA,140253.00,16,06,2023,00,00*65
14:02:54  $GPRMC,140254.00,V,,,,,,,160623,,,N*7B
14:02:54  $GPVTG,,,,,,,,,N*30
14:02:54  $GPGGA,140254.00,,,,,0,00,99.99,,,,,,*60
14:02:54  $GPGSA,A,1,,,,,,,,,,,,,99.99,99.99,99.99*30
14:02:54  $GPGSV,3,1,12,01,63,283,23,02,75,249,26,03,23,249,11,08,23,197,*74
14:02:54  $GPGSV,3,2,12,10,24,075,,14,11,290,,17,18,323,,21,76,200,*7D
14:02:54  $GPGSV,3,3,12,24,08,015,17,27,00,176,,28,09,121,,32,54,088,*72
14:02:54  $GPGLL,,,,,140254.00,V,N*4C
14:02:54  $GPZDA,140254.00,16,06,2023,00,00*62
14:02:55  $GPRMC,140255.00,V,,,,,,,160623,,,N*7A
14:02:55  $GPVTG,,,,,,,,,N*30
14:02:55  $GPGGA,140255.00,,,,,0,00,99.99,,,,,,*61
14:02:55  $GPGSA,A,1,,,,,,,,,,,,,99.99,99.99,99.99*30
14:02:55  $GPGSV,3,1,11,01,63,283,23,02,75,249,26,03,23,249,11,08,23,197,*77
14:02:55  $GPGSV,3,2,11,10,24,075,,14,11,290,,17,18,323,,21,76,200,*7E
14:02:55  $GPGSV,3,3,11,24,08,015,17,28,09,121,,32,54,088,*44
14:02:55  $GPGLL,,,,,140255.00,V,N*4D
14:02:55  $GPZDA,140255.00,16,06,2023,00,00*63
14:02:56  $GPRMC,140256.00,V,,,,,,,160623,,,N*79
14:02:56  $GPVTG,,,,,,,,,N*30
14:02:56  $GPGGA,140256.00,,,,,0,00,99.99,,,,,,*62
14:02:56  $GPGSA,A,1,,,,,,,,,,,,,99.99,99.99,99.99*30
14:02:56  $GPGSV,3,1,11,01,63,283,22,02,75,249,26,03,23,249,11,08,23,197,*76
14:02:56  $GPGSV,3,2,11,10,24,075,,14,11,290,,17,18,323,,21,76,200,*7E
14:02:56  $GPGSV,3,3,11,24,08,015,16,28,09,121,,32,54,088,*45
14:02:56  $GPGLL,,,,,140256.00,V,N*4E
14:02:56  $GPZDA,140256.00,16,06,2023,00,00*60
14:02:57  $GPRMC,140257.00,V,,,,,,,160623,,,N*78
14:02:57  $GPVTG,,,,,,,,,N*30
14:02:57  $GPGGA,140257.00,,,,,0,00,99.99,,,,,,*63
14:02:57  $GPGSA,A,1,,,,,,,,,,,,,99.99,99.99,99.99*30
14:02:57  $GPGSV,3,1,11,01,63,283,22,02,75,249,26,03,23,249,11,08,23,197,*76
14:02:57  $GPGSV,3,2,11,10,24,075,,14,11,290,,17,18,323,,21,76,200,*7E
14:02:57  $GPGSV,3,3,11,24,08,015,16,28,09,121,,32,54,088,*45
14:02:57  $GPGLL,,,,,140257.00,V,N*4F
14:02:57  $GPZDA,140257.00,16,06,2023,00,00*61
14:02:58  $GPRMC,140258.00,V,,,,,,,160623,,,N*77
14:02:58  $GPVTG,,,,,,,,,N*30
14:02:58  $GPGGA,140258.00,,,,,0,00,99.99,,,,,,*6C
14:02:58  $GPGSA,A,1,,,,,,,,,,,,,99.99,99.99,99.99*30
14:02:58  $GPGSV,3,1,11,01,63,283,22,02,75,249,25,03,23,249,11,08,23,197,*75
14:02:58  $GPGSV,3,2,11,10,24,075,,14,11,290,,17,18,323,,21,76,200,*7E
14:02:58  $GPGSV,3,3,11,24,08,015,15,28,09,121,,32,54,088,*46
14:02:58  $GPGLL,,,,,140258.00,V,N*40
14:02:58  $GPZDA,140258.00,16,06,2023,00,00*6E
14:02:59  $GPRMC,140259.00,V,,,,,,,160623,,,N*76
14:02:59  $GPVTG,,,,,,,,,N*30
14:02:59  $GPGGA,140259.00,,,,,0,00,99.99,,,,,,*6D
14:02:59  $GPGSA,A,1,,,,,,,,,,,,,99.99,99.99,99.99*30
14:02:59  $GPGSV,3,1,11,01,63,283,22,02,75,249,25,03,23,249,11,08,23,197,*75
14:02:59  $GPGSV,3,2,11,10,24,075,,14,11,290,,17,18,323,,21,76,200,*7E
14:02:59  $GPGSV,3,3,11,24,08,015,16,28,09,121,,32,54,088,*45
14:02:59  $GPGLL,,,,,140259.00,V,N*41
14:02:59  $GPZDA,140259.00,16,06,2023,00,00*6F
14:03:00  $GPRMC,140300.00,V,,,,,,,160623,,,N*7B
14:03:00  $GPVTG,,,,,,,,,N*30
14:03:00  $GPGGA,140300.00,,,,,0,00,99.99,,,,,,*60
14:03:00  $GPGSA,A,1,,,,,,,,,,,,,99.99,99.99,99.99*30
14:03:00  $GPGSV,3,1,11,01,63,283,21,02,75,249,25,03,23,249,,08,23,197,*76
14:03:00  $GPGSV,3,2,11,10,24,075,,14,11,290,,17,18,323,,21,76,200,*7E
14:03:00  $GPGSV,3,3,11,24,08,015,16,28,09,121,,32,54,088,*45
14:03:00  $GPGLL,,,,,140300.00,V,N*4C
14:03:00  $GPZDA,140300.00,16,06,2023,00,00*62
14:03:01  $GPRMC,140301.00,V,,,,,,,160623,,,N*7A
14:03:01  $GPVTG,,,,,,,,,N*30
14:03:01  $GPGGA,140301.00,,,,,0,00,99.99,,,,,,*61
14:03:01  $GPGSA,A,1,,,,,,,,,,,,,99.99,99.99,99.99*30
14:03:01  $GPGSV,3,1,11,01,63,283,21,02,75,249,25,03,23,249,,08,23,197,*76
14:03:01  $GPGSV,3,2,11,10,24,075,,14,11,290,,17,18,323,,21,76,200,*7E
14:03:01  $GPGSV,3,3,11,24,08,015,15,28,09,121,,32,54,088,*46
14:03:01  $GPGLL,,,,,140301.00,V,N*4D
14:03:01  $GPZDA,140301.00,16,06,2023,00,00*63
14:03:02  $GPRMC,140302.00,V,,,,,,,160623,,,N*79
14:03:02  $GPVTG,,,,,,,,,N*30
14:03:02  $GPGGA,140302.00,,,,,0,00,99.99,,,,,,*62
14:03:02  $GPGSA,A,1,,,,,,,,,,,,,99.99,99.99,99.99*30
14:03:02  $GPGSV,3,1,11,01,63,283,21,02,75,249,25,03,23,249,,08,23,197,*76
14:03:02  $GPGSV,3,2,11,10,24,075,,14,11,290,,17,18,323,,21,76,200,*7E
14:03:02  $GPGSV,3,3,11,24,08,015,16,28,09,121,,32,54,088,*45
14:03:02  $GPGLL,,,,,140302.00,V,N*4E
14:03:02  $GPZDA,140302.00,16,06,2023,00,00*60
14:03:03  $GPRMC,140303.00,V,,,,,,,160623,,,N*78
14:03:03  $GPVTG,,,,,,,,,N*30
14:03:03  $GPGGA,140303.00,,,,,0,00,99.99,,,,,,*63
14:03:03  $GPGSA,A,1,,,,,,,,,,,,,99.99,99.99,99.99*30
14:03:03  $GPGSV,3,1,11,01,63,283,22,02,75,249,25,03,23,249,,08,23,197,*75
14:03:03  $GPGSV,3,2,11,10,24,075,,14,11,290,,17,18,323,,21,76,200,*7E
14:03:03  $GPGSV,3,3,11,24,08,015,17,28,09,121,,32,54,088,*44
14:03:03  $GPGLL,,,,,140303.00,V,N*4F
14:03:03  $GPZDA,140303.00,16,06,2023,00,00*61
14:03:04  $GPRMC,140304.00,V,,,,,,,160623,,,N*7F
14:03:04  $GPVTG,,,,,,,,,N*30
14:03:04  $GPGGA,140304.00,,,,,0,00,99.99,,,,,,*64
14:03:04  $GPGSA,A,1,,,,,,,,,,,,,99.99,99.99,99.99*30
14:03:04  $GPGSV,3,1,11,01,63,283,22,02,75,249,25,03,23,249,,08,23,197,*75
14:03:04  $GPGSV,3,2,11,10,24,075,,14,11,290,,17,18,323,,21,76,200,*7E
14:03:04  $GPGSV,3,3,11,24,08,015,17,28,09,121,,32,54,088,*44
14:03:04  $GPGLL,,,,,140304.00,V,N*48
14:03:04  $GPZDA,140304.00,16,06,2023,00,00*66
14:03:05  $GPRMC,140305.00,V,,,,,,,160623,,,N*7E
14:03:05  $GPVTG,,,,,,,,,N*30
14:03:05  $GPGGA,140305.00,,,,,0,00,99.99,,,,,,*65
14:03:05  $GPGSA,A,1,,,,,,,,,,,,,99.99,99.99,99.99*30
14:03:05  $GPGSV,3,1,11,01,63,283,22,02,75,248,25,03,23,249,,08,23,197,*74
14:03:05  $GPGSV,3,2,11,10,24,075,,14,11,290,,17,18,323,,21,76,200,*7E
14:03:05  $GPGSV,3,3,11,24,08,015,17,28,09,121,,32,54,088,*44
14:03:05  $GPGLL,,,,,140305.00,V,N*49
14:03:05  $GPZDA,140305.00,16,06,2023,00,00*67
14:03:06  $GPRMC,140306.00,V,,,,,,,160623,,,N*7D
14:03:06  $GPVTG,,,,,,,,,N*30
14:03:06  $GPGGA,140306.00,,,,,0,00,99.99,,,,,,*66
14:03:06  $GPGSA,A,1,,,,,,,,,,,,,99.99,99.99,99.99*30
14:03:06  $GPGSV,3,1,11,01,63,283,22,02,75,248,25,03,23,249,,08,23,197,*74
14:03:06  $GPGSV,3,2,11,10,24,075,,14,11,290,,17,18,323,,21,76,200,*7E
14:03:06  $GPGSV,3,3,11,24,08,015,17,28,09,121,,32,54,088,*44
14:03:06  $GPGLL,,,,,140306.00,V,N*4A
14:03:06  $GPZDA,140306.00,16,06,2023,00,00*64
14:03:07  $GPRMC,140307.00,V,,,,,,,160623,,,N*7C
14:03:07  $GPVTG,,,,,,,,,N*30
14:03:07  $GPGGA,140307.00,,,,,0,00,99.99,,,,,,*67
14:03:07  $GPGSA,A,1,,,,,,,,,,,,,99.99,99.99,99.99*30
14:03:07  $GPGSV,3,1,11,01,63,283,21,02,75,248,24,03,23,249,,08,23,197,*76
14:03:07  $GPGSV,3,2,11,10,24,075,,14,11,290,,17,18,323,,21,76,200,17*78
14:03:07  $GPGSV,3,3,11,24,08,015,18,28,09,121,,32,54,088,*4B
14:03:07  $GPGLL,,,,,140307.00,V,N*4B
14:03:07  $GPZDA,140307.00,16,06,2023,00,00*65
14:03:08  $GPRMC,140308.00,V,,,,,,,160623,,,N*73
14:03:08  $GPVTG,,,,,,,,,N*30
14:03:08  $GPGGA,140308.00,,,,,0,00,99.99,,,,,,*68
14:03:08  $GPGSA,A,1,,,,,,,,,,,,,99.99,99.99,99.99*30
14:03:08  $GPGSV,3,1,11,01,63,283,21,02,75,248,24,03,23,249,,08,23,197,*76
14:03:08  $GPGSV,3,2,11,10,24,075,,14,11,290,,17,18,323,,21,76,200,17*78
14:03:08  $GPGSV,3,3,11,24,08,015,18,28,09,121,,32,54,088,*4B
14:03:08  $GPGLL,,,,,140308.00,V,N*44
14:03:08  $GPZDA,140308.00,16,06,2023,00,00*6A
14:03:09  $GPRMC,140309.00,V,,,,,,,160623,,,N*72
14:03:09  $GPVTG,,,,,,,,,N*30
14:03:09  $GPGGA,140309.00,,,,,0,00,99.99,,,,,,*69
14:03:09  $GPGSA,A,1,,,,,,,,,,,,,99.99,99.99,99.99*30
14:03:09  $GPGSV,3,1,11,01,63,283,21,02,75,248,24,03,23,249,,08,23,197,*76
14:03:09  $GPGSV,3,2,11,10,24,075,,14,11,290,,17,18,323,,21,76,200,16*79
14:03:09  $GPGSV,3,3,11,24,08,015,17,28,09,121,,32,54,088,*44
14:03:09  $GPGLL,,,,,140309.00,V,N*45
14:03:09  $GPZDA,140309.00,16,06,2023,00,00*6B
14:03:10  $GPRMC,140310.00,V,,,,,,,160623,,,N*7A
14:03:10  $GPVTG,,,,,,,,,N*30
14:03:10  $GPGGA,140310.00,,,,,0,00,99.99,,,,,,*61
14:03:10  $GPGSA,A,1,,,,,,,,,,,,,99.99,99.99,99.99*30
14:03:10  $GPGSV,3,1,11,01,63,283,21,02,75,248,24,03,23,249,,08,23,197,*76
14:03:10  $GPGSV,3,2,11,10,24,075,,14,11,290,,17,18,323,,21,76,200,15*7A
14:03:10  $GPGSV,3,3,11,24,08,015,17,28,09,121,,32,54,088,*44
14:03:10  $GPGLL,,,,,140310.00,V,N*4D
14:03:10  $GPZDA,140310.00,16,06,2023,00,00*63
14:03:11  $GPRMC,140311.00,V,,,,,,,160623,,,N*7B
14:03:11  $GPVTG,,,,,,,,,N*30
14:03:11  $GPGGA,140311.00,,,,,0,00,99.99,,,,,,*60
14:03:11  $GPGSA,A,1,,,,,,,,,,,,,99.99,99.99,99.99*30
14:03:11  $GPGSV,3,1,11,01,63,283,21,02,75,248,23,03,23,249,,08,23,197,*71
14:03:11  $GPGSV,3,2,11,10,24,075,,14,11,290,,17,18,323,,21,76,200,15*7A
14:03:11  $GPGSV,3,3,11,24,08,015,17,28,09,121,,32,54,088,*44
14:03:11  $GPGLL,,,,,140311.00,V,N*4C
14:03:11  $GPZDA,140311.00,16,06,2023,00,00*62
14:03:12  $GPRMC,140312.00,V,,,,,,,160623,,,N*78
14:03:12  $GPVTG,,,,,,,,,N*30
14:03:12  $GPGGA,140312.00,,,,,0,00,99.99,,,,,,*63
14:03:12  $GPGSA,A,1,,,,,,,,,,,,,99.99,99.99,99.99*30
14:03:12  $GPGSV,3,1,11,01,63,283,21,02,75,248,24,03,23,249,,08,23,197,*76
14:03:12  $GPGSV,3,2,11,10,24,075,,14,11,290,,17,18,323,,21,76,200,15*7A
14:03:12  $GPGSV,3,3,11,24,08,015,16,28,09,121,,32,54,088,*45
14:03:12  $GPGLL,,,,,140312.00,V,N*4F
20:36:18  $GPRMC,203618.00,V,,,,,,,030722,,,N*77
20:36:18  $GPVTG,,,,,,,,,N*30
20:36:18  $GPGGA,203618.00,,,,,0,04,7.22,,,,,,*5B
20:36:18  $GPGSA,A,1,15,02,18,11,,,,,,,,,15.55,7.22,13.77*0E
20:36:18  $GPGSV,4,1,14,01,,,31,02,26,199,47,05,,,50,07,,,50*4C
20:36:18  $GPGSV,4,2,14,09,,,44,11,25,188,47,12,,,30,13,,,48*48
20:36:18  $GPGSV,4,3,14,15,05,248,43,17,,,30,18,20,321,46,20,,,50*78
20:36:18  $GPGSV,4,4,14,29,,,45,30,,,50*70
20:36:18  $GPGLL,,,,,203618.00,V,N*44
20:36:18  $GPZDA,203618.00,03,07,2022,00,00*6E
20:36:19  $GPRMC,203619.00,V,,,,,,,030722,,,N*76
20:36:19  $GPVTG,,,,,,,,,N*30
20:36:19  $GPGGA,203619.00,,,,,0,04,7.22,,,,,,*5A
20:36:19  $GPGSA,A,1,15,02,18,11,,,,,,,,,15.56,7.22,13.78*02
20:36:19  $GPGSV,4,1,15,01,,,31,02,26,199,47,05,,,50,07,,,47*4B
20:36:19  $GPGSV,4,2,15,09,,,45,10,,,31,11,25,188,46,13,,,48*4A
20:36:19  $GPGSV,4,3,15,15,05,248,44,16,,,45,17,,,29,18,20,321,46*77
20:36:19  $GPGSV,4,4,15,20,,,50,29,,,46,30,,,50*75
20:36:19  $GPGLL,,,,,203619.00,V,N*45
20:36:19  $GPZDA,203619.00,03,07,2022,00,00*6F
20:36:20  $GPRMC,203620.00,V,,,,,,,030722,,,N*7C
20:36:20  $GPVTG,,,,,,,,,N*30
20:36:20  $GPGGA,203620.00,,,,,0,04,7.22,,,,,,*50
20:36:20  $GPGSA,A,1,15,02,18,11,,,,,,,,,15.56,7.22,13.79*03
20:36:20  $GPGSV,4,1,14,02,26,199,48,05,,,53,07,,,52,09,,,46*4A
20:36:20  $GPGSV,4,2,14,11,25,188,48,13,,,49,15,05,248,45,16,,,46*74
20:36:20  $GPGSV,4,3,14,17,,,34,18,20,321,47,20,,,53,21,,,33*45
20:36:20  $GPGSV,4,4,14,29,,,47,30,,,51*73
20:36:20  $GPGLL,,,,,203620.00,V,N*4F
20:36:20  $GPZDA,203620.00,03,07,2022,00,00*65
20:36:21  $GPRMC,203621.00,V,,,,,,,030722,,,N*7D
20:36:21  $GPVTG,,,,,,,,,N*30
20:36:21  $GPGGA,203621.00,,,,,0,03,25.02,,,,,,*64
20:36:21  $GPGSA,A,1,15,02,11,,,,,,,,,,25.04,25.02,1.00*01
20:36:21  $GPGSV,4,1,15,01,,,32,02,26,199,49,05,,,53,07,,,52*41
20:36:21  $GPGSV,4,2,15,08,,,35,09,,,46,10,,,34,11,25,188,48*42
20:36:21  $GPGSV,4,3,15,13,,,50,15,05,248,45,16,,,46,18,20,321,48*71
20:36:21  $GPGSV,4,4,15,20,,,53,29,,,47,30,,,52*75
20:36:21  $GPGLL,,,,,203621.00,V,N*4E
20:36:21  $GPZDA,203621.00,03,07,2022,00,00*64
20:36:22  $GPRMC,203622.00,V,,,,,,,030722,,,N*7E
20:36:22  $GPVTG,,,,,,,,,N*30
20:36:22  $GPGGA,203622.00,,,,,0,03,2.19,,,,,,*58
20:36:22  $GPGSA,A,1,15,18,11,,,,,,,,,,2.41,2.19,1.00*01
20:36:22  $GPGSV,4,1,14,02,26,199,,05,,,51,07,,,51,08,,,32*45
20:36:22  $GPGSV,4,2,14,09,,,46,11,25,188,48,13,,,49,15,05,248,45*7A
20:36:22  $GPGSV,4,3,14,16,,,46,18,20,321,48,20,,,51,21,,,33*4C
20:36:22  $GPGSV,4,4,14,29,,,47,30,,,52*70
20:36:22  $GPGLL,,,,,203622.00,V,N*4D
20:36:22  $GPZDA,203622.00,03,07,2022,00,00*67
20:36:23  $GPRMC,203623.00,V,,,,,,,030722,,,N*7F
20:36:23  $GPVTG,,,,,,,,,N*30
20:36:23  $GPGGA,203623.00,,,,,0,04,7.22,,,,,,*53
20:36:23  $GPGSA,A,1,15,02,18,11,,,,,,,,,15.58,7.22,13.80*0B
20:36:23  $GPGSV,4,1,14,02,26,199,47,05,,,51,07,,,51,09,,,45*47
20:36:23  $GPGSV,4,2,14,11,25,188,47,13,,,48,15,05,248,44,16,,,44*79
20:36:23  $GPGSV,4,3,14,17,,,32,18,20,321,46,20,,,52,21,,,32*42
20:36:23  $GPGSV,4,4,14,29,,,46,30,,,51*72
20:36:23  $GPGLL,,,,,203623.00,V,N*4C
20:36:23  $GPZDA,203623.00,03,07,2022,00,00*66
20:36:24  $GPRMC,203624.00,V,,,,,,,030722,,,N*78
20:36:24  $GPVTG,,,,,,,,,N*30
20:36:24  $GPGGA,203624.00,,,,,0,04,7.22,,,,,,*54
20:36:24  $GPGSA,A,1,15,02,18,11,,,,,,,,,15.58,7.22,13.81*0A
20:36:24  $GPGSV,4,1,15,02,26,199,48,05,,,51,07,,,51,09,,,45*49
20:36:24  $GPGSV,4,2,15,11,25,188,47,13,,,49,15,05,248,44,16,,,45*78
20:36:24  $GPGSV,4,3,15,17,,,38,18,20,321,47,20,,,51,22,,,33*49
20:36:24  $GPGSV,4,4,15,29,,,46,30,,,51,31,,,33*71
20:36:24  $GPGLL,,,,,203624.00,V,N*4B
20:36:24  $GPZDA,203624.00,03,07,2022,00,00*61
20:36:25  $GPRMC,203625.00,A,6352.74783,N,02226.69799,W,0.326,89.20,030722,,,A*4D
20:36:25  $GPVTG,89.20,T,,M,0.326,N,0.603,K,A*0C
20:36:25  $GPGGA,203625.00,6352.74783,N,02226.69799,W,1,05,1.05,-9.5,M,60.8,M,,*61
20:36:25  $GPGSA,A,3,15,02,09,18,11,,,,,,,,3.71,1.05,3.56*05
20:36:25  $GPGSV,4,1,16,02,26,199,48,05,,,51,07,,,51,09,11,073,45*7E
20:36:25  $GPGSV,4,2,16,10,,,32,11,25,188,47,13,,,49,15,05,248,45*7C
20:36:25  $GPGSV,4,3,16,16,,,45,18,20,321,47,19,,,31,20,,,52*48
20:36:25  $GPGSV,4,4,16,22,,,32,29,,,46,30,,,51,33,18,172,33*4C
20:36:25  $GPGLL,6352.74783,N,02226.69799,W,203625.00,A,A*7A
20:36:25  $GPZDA,203625.00,03,07,2022,00,00*60
20:36:26  $GPRMC,203626.00,A,6352.74722,N,02226.70077,W,0.053,,030722,,,A*66
20:36:26  $GPVTG,,T,,M,0.053,N,0.099,K,A*25
20:36:26  $GPGGA,203626.00,6352.74722,N,02226.70077,W,1,06,0.95,-5.5,M,60.8,M,,*61
20:36:26  $GPGSA,A,3,15,02,16,09,18,11,,,,,,,3.67,0.95,3.55*0E
20:36:26  $GPGSV,4,1,15,02,26,199,47,05,,,51,07,,,50,09,11,073,45*73
20:36:26  $GPGSV,4,2,15,11,25,188,47,13,,,48,15,05,248,44,16,14,004,45*48
20:36:26  $GPGSV,4,3,15,18,20,321,46,19,,,27,20,,,50,23,,,32*49
20:36:26  $GPGSV,4,4,15,29,,,46,30,,,50,33,18,172,32*4E
20:36:26  $GPGLL,6352.74722,N,02226.70077,W,203626.00,A,A*7D
20:36:26  $GPZDA,203626.00,03,07,2022,00,00*63
20:36:27  $GPRMC,203627.00,A,6352.74690,N,02226.70129,W,0.000,,030722,,,A*63
20:36:27  $GPVTG,,T,,M,0.000,N,0.001,K,A*22
20:36:27  $GPGGA,203627.00,6352.74690,N,02226.70129,W,1,06,0.95,-5.4,M,60.8,M,,*63
20:36:27  $GPGSA,A,3,15,02,16,09,18,11,,,,,,,3.67,0.95,3.55*0E
20:36:27  $GPGSV,4,1,15,02,26,199,47,05,,,50,07,,,51,09,11,073,45*73
20:36:27  $GPGSV,4,2,15,11,25,188,47,13,,,48,15,05,248,44,16,14,004,45*48
20:36:27  $GPGSV,4,3,15,18,20,321,47,19,,,26,20,,,50,24,,,31*4D
20:36:27  $GPGSV,4,4,15,29,,,46,30,,,50,33,18,172,31*4D
20:36:27  $GPGLL,6352.74690,N,02226.70129,W,203627.00,A,A*7E
20:36:27  $GPZDA,203627.00,03,07,2022,00,00*62
20:36:28  $GPRMC,203628.00,A,6352.74656,N,02226.70150,W,0.007,,030722,,,A*6F
20:36:28  $GPVTG,,T,,M,0.007,N,0.013,K,A*26
20:36:28  $GPGGA,203628.00,6352.74656,N,02226.70150,W,1,06,0.95,-5.8,M,60.8,M,,*64
20:36:28  $GPGSA,A,3,15,02,16,09,18,11,,,,,,,3.67,0.95,3.55*0E
20:36:28  $GPGSV,4,1,14,02,26,199,47,04,,,31,07,,,50,09,11,073,45*75
20:36:28  $GPGSV,4,2,14,11,25,188,46,13,,,48,15,05,248,44,16,14,004,45*48
20:36:28  $GPGSV,4,3,14,18,20,321,46,20,,,50,23,,,31,29,,,46*4F
20:36:28  $GPGSV,4,4,14,30,,,50,33,18,172,29*4C
20:36:28  $GPGLL,6352.74656,N,02226.70150,W,203628.00,A,A*75
20:36:28  $GPZDA,203628.00,03,07,2022,00,00*6D
20:36:29  $GPRMC,203629.00,A,6352.74645,N,02226.70161,W,0.018,,030722,,,A*60
20:36:29  $GPVTG,,T,,M,0.018,N,0.033,K,A*2A
20:36:29  $GPGGA,203629.00,6352.74645,N,02226.70161,W,1,06,0.95,-6.9,M,60.8,M,,*67
20:36:29  $GPGSA,A,3,15,02,16,09,18,11,,,,,,,3.68,0.95,3.55*01
20:36:29  $GPGSV,4,1,15,01,,,31,02,26,199,47,05,,,50,07,,,51*4C
20:36:29  $GPGSV,4,2,15,09,11,073,45,11,25,188,47,13,,,48,15,05,248,44*43
20:36:29  $GPGSV,4,3,15,16,14,004,45,18,20,321,46,19,,,32,20,,,50*7A
20:36:29  $GPGSV,4,4,15,23,,,32,29,,,46,30,,,50*72
20:36:29  $GPGLL,6352.74645,N,02226.70161,W,203629.00,A,A*74
20:36:29  $GPZDA,203629.00,03,07,2022,00,00*6C
20:36:30  $GPRMC,203630.00,A,6352.74648,N,02226.70107,W,0.012,,030722,,,A*6F
20:36:30  $GPVTG,,T,,M,0.012,N,0.022,K,A*20
20:36:30  $GPGGA,203630.00,6352.74648,N,02226.70107,W,1,06,0.95,-7.9,M,60.8,M,,*63
20:36:30  $GPGSA,A,3,15,02,16,09,18,11,,,,,,,3.68,0.95,3.55*01
20:36:30  $GPGSV,4,1,13,02,26,199,46,05,,,51,07,,,50,09,11,073,44*75
20:36:30  $GPGSV,4,2,13,10,,,32,11,25,188,46,13,,,48,15,05,248,43*7F
20:36:30  $GPGSV,4,3,13,16,14,004,44,18,20,321,45,20,,,50,29,,,45*7D
20:36:30  $GPGSV,4,4,13,30,,,49*75
20:36:30  $GPGLL,6352.74648,N,02226.70107,W,203630.00,A,A*71
20:36:30  $GPZDA,203630.00,03,07,2022,00,00*64
20:36:31  $GPRMC,203631.00,A,6352.74626,N,02226.70114,W,0.009,,030722,,,A*6E
20:36:31  $GPVTG,,T,,M,0.009,N,0.017,K,A*2C
20:36:31  $GPGGA,203631.00,6352.74626,N,02226.70114,W,1,06,0.95,-8.0,M,60.8,M,,*6E
20:36:31  $GPGSA,A,3,15,02,16,09,18,11,,,,,,,3.68,0.95,3.55*01
20:36:31  $GPGSV,4,1,13,02,26,199,47,05,,,51,07,,,51,09,11,073,45*74
20:36:31  $GPGSV,4,2,13,10,,,32,11,25,188,47,13,,,49,15,05,248,44*78
20:36:31  $GPGSV,4,3,13,16,14,004,45,18,20,321,47,20,,,51,29,,,46*7C
20:36:31  $GPGSV,4,4,13,30,,,51*7C
20:36:31  $GPGLL,6352.74626,N,02226.70114,W,203631.00,A,A*7A
20:36:31  $GPZDA,203631.00,03,07,2022,00,00*65
20:36:32  $GPRMC,203632.00,A,6352.74566,N,02226.69895,W,0.135,,030722,,,A*6C
20:36:32  $GPVTG,,T,,M,0.135,N,0.250,K,A*23
20:36:32  $GPGGA,203632.00,6352.74566,N,02226.69895,W,1,08,0.84,-13.6,M,60.8,M,,*50
20:36:32  $GPGSA,A,3,15,02,29,16,07,09,18,11,,,,,2.31,0.84,2.15*05
20:36:32  $GPGSV,4,1,13,02,26,199,48,05,,,53,07,48,088,51,09,11,073,46*46
20:36:32  $GPGSV,4,2,13,11,25,188,48,13,,,49,15,05,248,45,16,14,004,46*42
20:36:32  $GPGSV,4,3,13,18,20,321,47,20,,,53,29,19,278,47,30,,,51*7A
20:36:32  $GPGSV,4,4,13,37,10,133,35*49
20:36:32  $GPGLL,6352.74566,N,02226.69895,W,203632.00,A,A*76
20:36:32  $GPZDA,203632.00,03,07,2022,00,00*66
20:36:33  $GPRMC,203633.00,A,6352.74517,N,02226.69713,W,0.041,,030722,,,A*68
20:36:33  $GPVTG,,T,,M,0.041,N,0.076,K,A*27
20:36:33  $GPGGA,203633.00,6352.74517,N,02226.69713,W,1,07,0.87,-16.9,M,60.8,M,,*50
20:36:33  $GPGSA,A,3,15,02,29,16,09,18,11,,,,,,3.61,0.87,3.51*04
20:36:33  $GPGSV,4,1,13,02,26,199,49,05,,,52,07,48,088,51,09,11,073,46*46
20:36:33  $GPGSV,4,2,13,10,,,32,11,25,188,48,13,,,50,15,05,248,45*7E
20:36:33  $GPGSV,4,3,13,16,14,004,46,18,20,321,48,20,,,52,29,19,278,47*47
20:36:33  $GPGSV,4,4,13,30,,,52*7F
20:36:33  $GPGLL,6352.74517,N,02226.69713,W,203633.00,A,A*70
20:36:33  $GPZDA,203633.00,03,07,2022,00,00*67
20:36:34  $GPRMC,203634.00,A,6352.74416,N,02226.69473,W,0.044,,030722,,,A*6F
20:36:34  $GPVTG,,T,,M,0.044,N,0.081,K,A*2A
20:36:34  $GPGGA,203634.00,6352.74416,N,02226.69473,W,1,07,0.90,-23.0,M,60.8,M,,*5B
20:36:34  $GPGSA,A,3,15,29,16,07,09,18,11,,,,,,2.34,0.90,2.16*04
20:36:34  $GPGSV,3,1,12,02,26,199,48,05,,,52,07,48,088,51,09,11,073,46*41
20:36:34  $GPGSV,3,2,12,11,25,188,47,15,05,248,45,16,14,004,46,18,20,321,47*7C
20:36:34  $GPGSV,3,3,12,20,,,52,29,19,278,47,30,,,51,33,18,172,32*79
20:36:34  $GPGLL,6352.74416,N,02226.69473,W,203634.00,A,A*72
20:36:34  $GPZDA,203634.00,03,07,2022,00,00*60
20:36:35  $GPRMC,203635.00,V,,,,,,,030722,,,N*78
20:36:35  $GPVTG,,,,,,,,,N*30
20:36:35  $GPGGA,203635.00,,,,,0,08,0.84,,,,,,*53
20:36:35  $GPGSA,A,1,15,02,29,16,07,09,18,11,,,,,2.31,0.84,2.15*07
20:36:35  $GPGSV,4,1,14,02,26,199,48,03,,,31,05,,,51,07,48,088,51*7D
20:36:35  $GPGSV,4,2,14,09,11,073,45,11,25,188,47,13,,,49,15,05,248,45*42
20:36:35  $GPGSV,4,3,14,16,14,004,45,18,20,321,47,20,,,51,28,,,33*78
20:36:35  $GPGSV,4,4,14,29,19,278,46,30,,,51*47
20:36:35  $GPGLL,,,,,203635.00,V,N*4B
20:36:35  $GPZDA,203635.00,03,07,2022,00,00*61
20:36:36  $GPRMC,203636.00,V,,,,,,,030722,,,N*7B
20:36:36  $GPVTG,,,,,,,,,N*30
20:36:36  $GPGGA,203636.00,,,,,0,08,0.84,,,,,,*50
20:36:36  $GPGSA,A,1,15,02,29,16,07,09,18,11,,,,,2.31,0.84,2.15*07
20:36:36  $GPGSV,3,1,12,02,26,199,48,05,,,52,07,48,088,51,09,11,073,45*42
20:36:36  $GPGSV,3,2,12,11,25,188,47,13,,,49,15,05,248,45,16,14,004,46*4B
20:36:36  $GPGSV,3,3,12,18,20,321,47,20,,,52,29,19,278,46,30,,,51*7C
20:36:36  $GPGLL,,,,,203636.00,V,N*48
20:36:36  $GPZDA,203636.00,03,07,2022,00,00*62
20:36:37  $GPRMC,203637.00,A,6352.74725,N,02226.66010,W,0.012,,030722,,,A*62
20:36:37  $GPVTG,,T,,M,0.012,N,0.022,K,A*20
20:36:37  $GPGGA,203637.00,6352.74725,N,02226.66010,W,1,08,0.84,-59.3,M,60.8,M,,*51
20:36:37  $GPGSA,A,3,15,02,29,16,07,09,18,11,,,,,2.31,0.84,2.15*05
20:36:37  $GPGSV,4,1,15,02,26,199,48,05,,,52,07,48,088,51,09,11,073,45*42
20:36:37  $GPGSV,4,2,15,10,,,34,11,25,188,47,13,,,49,15,05,248,44*78
20:36:37  $GPGSV,4,3,15,16,14,004,45,18,20,321,47,20,,,52,21,,,35*75
20:36:37  $GPGSV,4,4,15,29,19,278,46,30,,,51,37,10,133,30*71
20:36:37  $GPGLL,6352.74725,N,02226.66010,W,203637.00,A,A*7C
20:36:37  $GPZDA,203637.00,03,07,2022,00,00*63
20:36:38  $GPRMC,203638.00,A,6352.74771,N,02226.65935,W,0.016,,030722,,,A*65
20:36:38  $GPVTG,,T,,M,0.016,N,0.030,K,A*27
20:36:38  $GPGGA,203638.00,6352.74771,N,02226.65935,W,1,08,0.84,-57.0,M,60.8,M,,*5F
20:36:38  $GPGSA,A,3,15,02,29,16,07,09,18,11,,,,,2.31,0.84,2.15*05
20:36:38  $GPGSV,4,1,16,02,26,199,48,05,,,51,06,,,31,07,48,088,51*7A
20:36:38  $GPGSV,4,2,16,09,11,073,45,11,25,188,47,13,,,49,15,05,248,44*41
20:36:38  $GPGSV,4,3,16,16,14,004,45,18,20,321,47,20,,,51,21,,,31*71
20:36:38  $GPGSV,4,4,16,29,19,278,46,30,,,51,31,,,34,37,10,133,29*7F
20:36:38  $GPGLL,6352.74771,N,02226.65935,W,203638.00,A,A*7F
20:36:38  $GPZDA,203638.00,03,07,2022,00,00*6C
20:36:39  $GPRMC,203639.00,A,6352.74805,N,02226.65859,W,0.014,,030722,,,A*61
20:36:39  $GPVTG,,T,,M,0.014,N,0.027,K,A*23
20:36:39  $GPGGA,203639.00,6352.74805,N,02226.65859,W,1,08,0.84,-50.3,M,60.8,M,,*5D
20:36:39  $GPGSA,A,3,15,02,29,16,07,09,18,11,,,,,2.31,0.84,2.15*05
20:36:39  $GPGSV,5,1,17,02,26,199,48,05,,,51,07,48,088,51,08,,,33*76
20:36:39  $GPGSV,5,2,17,09,11,073,45,11,25,188,47,13,,,49,15,05,248,44*41
20:36:39  $GPGSV,5,3,17,16,14,004,45,18,20,321,47,20,,,51,28,,,33*7A
20:36:39  $GPGSV,5,4,17,29,19,278,46,30,,,51,31,,,31,37,10,133,28*7B
20:36:39  $GPGSV,5,5,17,39,09,129,34*41
20:36:39  $GPGLL,6352.74805,N,02226.65859,W,203639.00,A,A*79
20:36:39  $GPZDA,203639.00,03,07,2022,00,00*6D
20:36:40  $GPRMC,203640.00,A,6352.74822,N,02226.65868,W,0.006,,030722,,,A*6B
20:36:40  $GPVTG,,T,,M,0.006,N,0.011,K,A*25
20:36:40  $GPGGA,203640.00,6352.74822,N,02226.65868,W,1,08,0.84,-50.2,M,60.8,M,,*55
20:36:40  $GPGSA,A,3,15,02,29,16,07,09,18,11,,,,,2.31,0.84,2.15*05
20:36:40  $GPGSV,4,1,13,02,26,199,47,05,,,52,07,48,088,50,09,11,073,44*4B
20:36:40  $GPGSV,4,2,13,11,25,188,46,13,,,48,15,05,248,44,16,14,004,45*4F
20:36:40  $GPGSV,4,3,13,18,20,321,46,20,,,52,29,19,278,46,30,,,50*7A
20:36:40  $GPGSV,4,4,13,37,10,133,27*4A
20:36:40  $GPGLL,6352.74822,N,02226.65868,W,203640.00,A,A*70
20:36:40  $GPZDA,203640.00,03,07,2022,00,00*63
20:36:41  $GPRMC,203641.00,A,6352.74834,N,02226.65875,W,0.008,,030722,,,A*6F
20:36:41  $GPVTG,,T,,M,0.008,N,0.015,K,A*2F
20:36:41  $GPGGA,203641.00,6352.74834,N,02226.65875,W,1,08,0.84,-49.6,M,60.8,M,,*53
20:36:41  $GPGSA,A,3,15,02,29,16,07,09,18,11,,,,,2.31,0.84,2.15*05
20:36:41  $GPGSV,3,1,12,02,26,199,47,05,,,51,07,48,088,50,09,11,073,44*4E
20:36:41  $GPGSV,3,2,12,11,25,188,46,13,,,48,15,05,248,44,16,14,004,45*49
20:36:41  $GPGSV,3,3,12,18,20,321,46,20,,,51,29,19,278,45,30,,,50*7C
20:36:41  $GPGLL,6352.74834,N,02226.65875,W,203641.00,A,A*7A
20:36:41  $GPZDA,203641.00,03,07,2022,00,00*62
20:36:42  $GPRMC,203642.00,A,6352.74836,N,02226.65889,W,0.012,,030722,,,A*66
20:36:42  $GPVTG,,T,,M,0.012,N,0.023,K,A*21
20:36:42  $GPGGA,203642.00,6352.74836,N,02226.65889,W,1,08,0.84,-49.4,M,60.8,M,,*53
20:36:42  $GPGSA,A,3,15,02,29,16,07,09,18,11,,,,,2.31,0.84,2.15*05
20:36:42  $GPGSV,4,1,13,01,,,33,02,26,199,48,05,,,52,07,48,088,51*79
20:36:42  $GPGSV,4,2,13,09,11,073,46,11,25,188,47,13,,,49,15,05,248,45*46
20:36:42  $GPGSV,4,3,13,16,14,004,46,18,20,321,47,20,,,52,29,19,278,46*49
20:36:42  $GPGSV,4,4,13,30,,,51*7C
20:36:42  $GPGLL,6352.74836,N,02226.65889,W,203642.00,A,A*78
20:36:42  $GPZDA,203642.00,03,07,2022,00,00*61
13:20:00  $GPRMC,132000.00,A,3656.45221,N,03110.15368,E,0.020,,190419,,,A*7A
13:20:00  $GPVTG,,T,,M,0.020,N,0.037,K,A*25
13:20:00  $GPGGA,132000.00,3656.45221,N,03110.15368,E,1,08,0.80,-54.4,M,30.9,M,,*42
13:20:00  $GPGSA,A,3,21,14,06,29,31,32,05,24,,,,,1.76,0.80,1.56*03
13:20:00  $GPGSV,4,1,15,02,,,51,05,15,113,46,06,11,039,46,12,,,52*74
13:20:00  $GPGSV,4,2,15,13,,,34,14,09,285,45,16,,,32,17,,,33*4C
13:20:00  $GPGSV,4,3,15,21,06,208,45,24,23,174,48,25,,,52,29,57,279,53*4E
13:20:00  $GPGSV,4,4,15,31,19,317,47,32,06,269,45,39,47,190,33*4B
13:20:00  $GPGLL,3656.45221,N,03110.15368,E,132000.00,A,A*65
13:20:00  $GPZDA,132000.00,19,04,2019,00,00*60
13:20:01  $GPRMC,132001.00,A,3656.45231,N,03110.15367,E,0.007,,190419,,,A*70
13:20:01  $GPVTG,,T,,M,0.007,N,0.012,K,A*27
13:20:01  $GPGGA,132001.00,3656.45231,N,03110.15367,E,1,08,0.80,-54.5,M,30.9,M,,*4C
13:20:01  $GPGSA,A,3,21,14,06,29,31,32,05,24,,,,,1.76,0.80,1.56*03
13:20:01  $GPGSV,4,1,15,01,,,33,02,,,52,05,15,113,46,06,11,039,46*72
13:20:01  $GPGSV,4,2,15,08,,,33,12,,,52,13,,,33,14,09,285,45*47
13:20:01  $GPGSV,4,3,15,21,06,208,45,24,23,174,48,25,,,48,29,57,279,53*45
13:20:01  $GPGSV,4,4,15,31,19,317,47,32,06,269,45,39,47,190,32*4A
13:20:01  $GPGLL,3656.45231,N,03110.15367,E,132001.00,A,A*6A
13:20:01  $GPZDA,132001.00,19,04,2019,00,00*61
13:20:02  $GPRMC,132002.00,A,3656.45244,N,03110.15360,E,0.008,,190419,,,A*79
13:20:02  $GPVTG,,T,,M,0.008,N,0.014,K,A*2E
13:20:02  $GPGGA,132002.00,3656.45244,N,03110.15360,E,1,08,0.80,-53.9,M,30.9,M,,*41
13:20:02  $GPGSA,A,3,21,14,06,29,31,32,05,24,,,,,1.76,0.80,1.56*03
13:20:02  $GPGSV,4,1,15,02,,,51,05,15,113,46,06,11,039,46,08,,,32*79
13:20:02  $GPGSV,4,2,15,12,,,52,13,,,32,14,09,285,45,19,,,33*46
13:20:02  $GPGSV,4,3,15,20,,,34,21,06,208,45,24,23,174,47,25,,,53*76
13:20:02  $GPGSV,4,4,15,29,57,279,53,31,19,317,47,32,06,269,45*49
13:20:02  $GPGLL,3656.45244,N,03110.15360,E,132002.00,A,A*6C
13:20:02  $GPZDA,132002.00,19,04,2019,00,00*62
13:20:03  $GPRMC,132003.00,A,3656.45256,N,03110.15354,E,0.008,,190419,,,A*7C
13:20:03  $GPVTG,,T,,M,0.008,N,0.016,K,A*2C
13:20:03  $GPGGA,132003.00,3656.45256,N,03110.15354,E,1,08,0.80,-53.4,M,30.9,M,,*49
13:20:03  $GPGSA,A,3,21,14,06,29,31,32,05,24,,,,,1.76,0.80,1.56*03
13:20:03  $GPGSV,4,1,15,02,,,51,05,15,113,46,06,11,039,46,12,,,51*77
13:20:03  $GPGSV,4,2,15,13,,,33,14,09,285,45,19,,,32,20,,,33*40
13:20:03  $GPGSV,4,3,15,21,06,208,45,22,,,34,24,23,174,47,25,,,49*7F
13:20:03  $GPGSV,4,4,15,29,57,279,53,31,19,317,47,32,06,269,45*49
13:20:03  $GPGLL,3656.45256,N,03110.15354,E,132003.00,A,A*69
13:20:03  $GPZDA,132003.00,19,04,2019,00,00*63
13:20:04  $GPRMC,132004.00,A,3656.45269,N,03110.15348,E,0.003,,190419,,,A*71
13:20:04  $GPVTG,,T,,M,0.003,N,0.005,K,A*25
13:20:04  $GPGGA,132004.00,3656.45269,N,03110.15348,E,1,08,0.80,-53.0,M,30.9,M,,*4B
13:20:04  $GPGSA,A,3,21,14,06,29,31,32,05,24,,,,,1.76,0.80,1.56*03
13:20:04  $GPGSV,4,1,16,01,,,33,02,,,51,05,15,113,46,06,11,039,45*71
13:20:04  $GPGSV,4,2,16,12,,,51,13,,,33,14,09,285,44,19,,,32*47
13:20:04  $GPGSV,4,3,16,20,,,33,21,06,208,45,22,,,32,24,23,174,47*72
13:20:04  $GPGSV,4,4,16,25,,,52,29,57,279,52,31,19,317,47,32,06,269,45*4B
13:20:04  $GPGLL,3656.45269,N,03110.15348,E,132004.00,A,A*6F
13:20:04  $GPZDA,132004.00,19,04,2019,00,00*64
13:20:05  $GPRMC,132005.00,A,3656.45262,N,03110.15338,E,0.012,,190419,,,A*7C
13:20:05  $GPVTG,,T,,M,0.012,N,0.022,K,A*20
13:20:05  $GPGGA,132005.00,3656.45262,N,03110.15338,E,1,08,0.80,-54.0,M,30.9,M,,*41
13:20:05  $GPGSA,A,3,21,14,06,29,31,32,05,24,,,,,1.76,0.80,1.56*03
13:20:05  $GPGSV,4,1,16,01,,,33,02,,,51,05,15,113,45,06,11,039,45*72
13:20:05  $GPGSV,4,2,16,12,,,51,13,,,33,14,09,285,44,19,,,32*47
13:20:05  $GPGSV,4,3,16,20,,,32,21,06,208,45,22,,,35,24,23,174,47*74
13:20:05  $GPGSV,4,4,16,25,,,52,29,57,279,52,31,19,317,46,32,06,269,45*4A
13:20:05  $GPGLL,3656.45262,N,03110.15338,E,132005.00,A,A*62
13:20:05  $GPZDA,132005.00,19,04,2019,00,00*65
13:20:06  $GPRMC,132006.00,A,3656.45248,N,03110.15338,E,0.005,,190419,,,A*71
13:20:06  $GPVTG,,T,,M,0.005,N,0.010,K,A*27
13:20:06  $GPGGA,132006.00,3656.45248,N,03110.15338,E,1,07,0.90,-53.0,M,30.9,M,,*43
13:20:06  $GPGSA,A,3,21,14,06,29,31,32,05,,,,,,1.84,0.90,1.61*0D
13:20:06  $GPGSV,4,1,15,02,,,51,03,,,33,05,15,113,45,06,11,039,45*73
13:20:06  $GPGSV,4,2,15,12,,,51,13,,,33,14,09,285,45,20,,,31*4C
13:20:06  $GPGSV,4,3,15,21,06,208,45,22,,,32,24,23,174,47,25,,,51*70
13:20:06  $GPGSV,4,4,15,29,57,279,52,31,19,317,46,32,06,269,45*49
13:20:06  $GPGLL,3656.45248,N,03110.15338,E,132006.00,A,A*69
13:20:06  $GPZDA,132006.00,19,04,2019,00,00*66
13:20:07  $GPRMC,132007.00,A,3656.45262,N,03110.15335,E,0.002,,190419,,,A*72
13:20:07  $GPVTG,,T,,M,0.002,N,0.005,K,A*24
13:20:07  $GPGGA,132007.00,3656.45262,N,03110.15335,E,1,08,0.80,-53.4,M,30.9,M,,*4D
13:20:07  $GPGSA,A,3,21,14,06,29,31,32,05,24,,,,,1.76,0.80,1.56*03
13:20:07  $GPGSV,4,1,15,02,,,51,03,,,30,05,15,113,45,06,11,039,45*70
13:20:07  $GPGSV,4,2,15,12,,,51,13,,,32,14,09,285,44,20,,,34*49
13:20:07  $GPGSV,4,3,15,21,06,208,44,22,,,31,24,23,174,47,25,,,52*71
13:20:07  $GPGSV,4,4,15,29,57,279,52,31,19,317,46,32,06,269,44*48
13:20:07  $GPGLL,3656.45262,N,03110.15335,E,132007.00,A,A*6D
13:20:07  $GPZDA,132007.00,19,04,2019,00,00*67
13:20:08  $GPRMC,132008.00,A,3656.45256,N,03110.15359,E,0.028,,190419,,,A*78
13:20:08  $GPVTG,,T,,M,0.028,N,0.051,K,A*2D
13:20:08  $GPGGA,132008.00,3656.45256,N,03110.15359,E,1,05,1.46,-59.6,M,30.9,M,,*41
13:20:08  $GPGSA,A,3,14,29,31,05,24,,,,,,,,2.43,1.46,1.94*07
13:20:08  $GPGSV,4,1,16,02,,,50,05,15,113,45,06,11,039,45,07,,,32*74
13:20:08  $GPGSV,4,2,16,09,,,33,10,,,31,12,,,52,13,,,32*75
13:20:08  $GPGSV,4,3,16,14,09,285,44,15,,,32,21,06,208,44,24,23,174,47*46
13:20:08  $GPGSV,4,4,16,25,,,51,29,57,279,52,31,19,317,46,32,06,269,44*48
13:20:08  $GPGLL,3656.45256,N,03110.15359,E,132008.00,A,A*6F
13:20:08  $GPZDA,132008.00,19,04,2019,00,00*68
13:20:09  $GPRMC,132009.00,A,3656.45271,N,03110.15341,E,0.010,,190419,,,A*7E
13:20:09  $GPVTG,,T,,M,0.010,N,0.019,K,A*2A
13:20:09  $GPGGA,132009.00,3656.45271,N,03110.15341,E,1,08,0.84,-56.8,M,30.9,M,,*4F
13:20:09  $GPGSA,A,3,21,14,06,29,31,32,05,24,,,,,4.04,0.84,3.95*0A
13:20:09  $GPGSV,4,1,14,02,,,52,05,15,113,46,06,11,039,46,07,,,32*74
13:20:09  $GPGSV,4,2,14,12,,,51,13,,,33,14,09,285,46,15,,,33*4A
13:20:09  $GPGSV,4,3,14,21,06,208,45,24,23,174,48,25,,,53,29,57,279,53*4E
13:20:09  $GPGSV,4,4,14,31,19,317,47,32,06,269,45*7B
13:20:09  $GPGLL,3656.45271,N,03110.15341,E,132009.00,A,A*62
13:20:09  $GPZDA,132009.00,19,04,2019,00,00*69
13:20:10  $GPRMC,132010.00,A,3656.45281,N,03110.15325,E,0.006,,190419,,,A*7C
13:20:10  $GPVTG,,T,,M,0.006,N,0.011,K,A*25
13:20:10  $GPGGA,132010.00,3656.45281,N,03110.15325,E,1,08,0.84,-54.5,M,30.9,M,,*45
13:20:10  $GPGSA,A,3,21,14,06,29,31,32,05,24,,,,,4.04,0.84,3.95*0A
13:20:10  $GPGSV,4,1,15,02,,,52,05,15,113,46,06,11,039,46,07,,,30*77
13:20:10  $GPGSV,4,2,15,09,,,33,10,,,33,12,,,53,14,09,285,46*47
13:20:10  $GPGSV,4,3,15,16,,,32,21,06,208,45,24,23,174,48,25,,,53*7A
13:20:10  $GPGSV,4,4,15,29,57,279,53,31,19,317,47,32,06,269,45*49
13:20:10  $GPGLL,3656.45281,N,03110.15325,E,132010.00,A,A*67
13:20:10  $GPZDA,132010.00,19,04,2019,00,00*61
13:20:11  $GPRMC,132011.00,A,3656.45290,N,03110.15322,E,0.023,,190419,,,A*7D
13:20:11  $GPVTG,,T,,M,0.023,N,0.043,K,A*25
13:20:11  $GPGGA,132011.00,3656.45290,N,03110.15322,E,1,08,0.80,-54.4,M,30.9,M,,*46
13:20:11  $GPGSA,A,3,21,14,06,29,31,32,05,24,,,,,1.76,0.80,1.56*03
13:20:11  $GPGSV,4,1,15,02,,,52,03,,,34,05,15,113,46,06,11,039,46*77
13:20:11  $GPGSV,4,2,15,07,,,40,12,,,52,14,09,285,45,16,,,34*4E
13:20:11  $GPGSV,4,3,15,21,06,208,45,24,23,174,48,25,,,50,29,57,279,53*4C
13:20:11  $GPGSV,4,4,15,31,19,317,47,32,06,269,45,39,47,190,33*4B
13:20:11  $GPGLL,3656.45290,N,03110.15322,E,132011.00,A,A*61
13:20:11  $GPZDA,132011.00,19,04,2019,00,00*60
13:20:12  $GPRMC,132012.00,A,3656.45299,N,03110.15320,E,0.009,,190419,,,A*7D
13:20:12  $GPVTG,,T,,M,0.009,N,0.017,K,A*2C
13:20:12  $GPGGA,132012.00,3656.45299,N,03110.15320,E,1,08,0.80,-54.3,M,30.9,M,,*49
13:20:12  $GPGSA,A,3,21,14,06,29,31,32,05,24,,,,,1.76,0.80,1.56*03
13:20:12  $GPGSV,4,1,16,01,,,33,02,,,51,03,,,34,04,,,31*7E
13:20:12  $GPGSV,4,2,16,05,15,113,46,06,11,039,46,09,,,30,12,,,51*7B
13:20:12  $GPGSV,4,3,16,14,09,285,45,16,,,32,21,06,208,45,24,23,174,48*4A
13:20:12  $GPGSV,4,4,16,25,,,50,29,57,279,53,31,19,317,47,32,06,269,45*48
13:20:12  $GPGLL,3656.45299,N,03110.15320,E,132012.00,A,A*69
13:20:12  $GPZDA,132012.00,19,04,2019,00,00*63
13:20:13  $GPRMC,132013.00,A,3656.45312,N,03110.15315,E,0.008,,190419,,,A*79
13:20:13  $GPVTG,,T,,M,0.008,N,0.014,K,A*2E
13:20:13  $GPGGA,132013.00,3656.45312,N,03110.15315,E,1,08,0.80,-54.0,M,30.9,M,,*4F
13:20:13  $GPGSA,A,3,21,14,06,29,31,32,05,24,,,,,1.76,0.80,1.56*03
13:20:13  $GPGSV,3,1,12,03,,,33,05,15,113,46,06,11,039,46,12,,,51*72
13:20:13  $GPGSV,3,2,12,14,09,285,45,21,06,208,45,24,23,174,47,25,,,51*42
13:20:13  $GPGSV,3,3,12,27,,,31,29,57,279,53,31,19,317,47,32,06,269,45*49
13:20:13  $GPGLL,3656.45312,N,03110.15315,E,132013.00,A,A*6C
13:20:13  $GPZDA,132013.00,19,04,2019,00,00*62
13:20:14  $GPRMC,132014.00,A,3656.45323,N,03110.15311,E,0.006,,190419,,,A*76
13:20:14  $GPVTG,,T,,M,0.006,N,0.011,K,A*25
13:20:14  $GPGGA,132014.00,3656.45323,N,03110.15311,E,1,08,0.80,-53.6,M,30.9,M,,*4F
13:20:14  $GPGSA,A,3,21,14,06,29,31,32,05,24,,,,,1.76,0.80,1.56*03
13:20:14  $GPGSV,3,1,12,02,,,51,03,,,33,05,15,113,46,06,11,039,46*73
13:20:14  $GPGSV,3,2,12,12,,,51,14,09,285,45,21,06,208,45,24,23,174,47*46
13:20:14  $GPGSV,3,3,12,25,,,52,29,57,279,53,31,19,317,47,32,06,269,45*4E
13:20:14  $GPGLL,3656.45323,N,03110.15311,E,132014.00,A,A*6D
13:20:14  $GPZDA,132014.00,19,04,2019,00,00*65
13:20:15  $GPRMC,132015.00,A,3656.45342,N,03110.15280,E,0.013,,190419,,,A*7D
13:20:15  $GPVTG,,T,,M,0.013,N,0.024,K,A*27
13:20:15  $GPGGA,132015.00,3656.45342,N,03110.15280,E,1,08,0.84,-53.3,M,30.9,M,,*41
13:20:15  $GPGSA,A,3,21,14,06,29,31,32,05,24,,,,,1.83,0.84,1.62*0A
13:20:15  $GPGSV,4,1,15,02,,,51,03,,,33,05,15,113,46,06,11,039,46*73
13:20:15  $GPGSV,4,2,15,10,,,33,11,,,34,12,,,51,14,09,285,45*48
13:20:15  $GPGSV,4,3,15,15,,,34,21,06,208,45,24,23,174,47,25,,,52*71
13:20:15  $GPGSV,4,4,15,29,57,279,53,31,19,317,47,32,06,269,45*49
13:20:15  $GPGLL,3656.45342,N,03110.15280,E,132015.00,A,A*62
13:20:15  $GPZDA,132015.00,19,04,2019,00,00*64
13:20:16  $GPRMC,132016.00,A,3656.45352,N,03110.15270,E,0.013,,190419,,,A*70
13:20:16  $GPVTG,,T,,M,0.013,N,0.024,K,A*27
13:20:16  $GPGGA,132016.00,3656.45352,N,03110.15270,E,1,08,0.84,-51.1,M,30.9,M,,*4C
13:20:16  $GPGSA,A,3,21,14,06,29,31,32,05,24,,,,,4.04,0.84,3.95*0A
13:20:16  $GPGSV,4,1,15,02,,,51,03,,,32,05,15,113,46,06,11,039,46*72
13:20:16  $GPGSV,4,2,15,10,,,33,11,,,33,12,,,51,14,09,285,45*4F
13:20:16  $GPGSV,4,3,15,15,,,28,21,06,208,45,24,23,174,47,25,,,50*7E
13:20:16  $GPGSV,4,4,15,29,57,279,53,31,19,317,47,32,06,269,45*49
13:20:16  $GPGLL,3656.45352,N,03110.15270,E,132016.00,A,A*6F
13:20:16  $GPZDA,132016.00,19,04,2019,00,00*67
13:20:17  $GPRMC,132017.00,A,3656.45362,N,03110.15268,E,0.009,,190419,,,A*70
13:20:17  $GPVTG,,T,,M,0.009,N,0.016,K,A*2D
13:20:17  $GPGGA,132017.00,3656.45362,N,03110.15268,E,1,08,0.80,-51.0,M,30.9,M,,*42
13:20:17  $GPGSA,A,3,21,14,06,29,31,32,05,24,,,,,1.76,0.80,1.56*03
13:20:17  $GPGSV,4,1,14,02,,,51,03,,,32,04,,,33,05,15,113,45*4A
13:20:17  $GPGSV,4,2,14,06,11,039,45,11,,,32,12,,,50,14,09,285,44*73
13:20:17  $GPGSV,4,3,14,21,06,208,44,24,23,174,47,25,,,51,29,57,279,52*43
13:20:17  $GPGSV,4,4,14,31,19,317,46,32,06,269,44*7B
13:20:17  $GPGLL,3656.45362,N,03110.15268,E,132017.00,A,A*64
13:20:17  $GPZDA,132017.00,19,04,2019,00,00*66
13:20:18  $GPRMC,132018.00,A,3656.45368,N,03110.15264,E,0.004,,190419,,,A*74
13:20:18  $GPVTG,,T,,M,0.004,N,0.007,K,A*20
13:20:18  $GPGGA,132018.00,3656.45368,N,03110.15264,E,1,08,0.80,-50.8,M,30.9,M,,*42
13:20:18  $GPGSA,A,3,21,14,06,29,31,32,05,24,,,,,1.76,0.80,1.56*03
13:20:18  $GPGSV,3,1,11,02,,,49,05,15,113,44,06,11,039,44,12,,,50*7C
13:20:18  $GPGSV,3,2,11,14,09,285,43,21,06,208,44,24,23,174,46,25,,,52*44
13:20:18  $GPGSV,3,3,11,29,57,279,51,31,19,317,45,32,06,269,43*4B
13:20:18  $GPGLL,3656.45368,N,03110.15264,E,132018.00,A,A*6D
13:20:18  $GPZDA,132018.00,19,04,2019,00,00*69
13:20:19  $GPRMC,132019.00,A,3656.45371,N,03110.15258,E,0.006,,190419,,,A*70
13:20:19  $GPVTG,,T,,M,0.006,N,0.012,K,A*26
13:20:19  $GPGGA,132019.00,3656.45371,N,03110.15258,E,1,08,0.80,-50.9,M,30.9,M,,*45
13:20:19  $GPGSA,A,3,21,14,06,29,31,32,05,24,,,,,1.76,0.80,1.56*03
13:20:19  $GPGSV,4,1,13,02,,,50,04,,,33,05,15,113,45,06,11,039,44*72
13:20:19  $GPGSV,4,2,13,12,,,51,14,09,285,44,17,,,32,21,06,208,44*71
13:20:19  $GPGSV,4,3,13,24,23,174,47,25,,,51,29,57,279,52,31,19,317,46*46
13:20:19  $GPGSV,4,4,13,32,06,269,44*41
13:20:19  $GPGLL,3656.45371,N,03110.15258,E,132019.00,A,A*6B
13:20:19  $GPZDA,132019.00,19,04,2019,00,00*68
13:20:20  $GPRMC,132020.00,A,3656.45396,N,03110.15239,E,0.011,,190419,,,A*72
13:20:20  $GPVTG,,T,,M,0.011,N,0.021,K,A*20
13:20:20  $GPGGA,132020.00,3656.45396,N,03110.15239,E,1,07,0.86,-49.0,M,30.9,M,,*49
13:20:20  $GPGSA,A,3,21,14,06,29,32,05,24,,,,,,1.79,0.86,1.56*08
13:20:20  $GPGSV,4,1,15,02,,,51,04,,,34,05,15,113,46,06,11,039,46*73
13:20:20  $GPGSV,4,2,15,12,,,51,14,09,285,45,17,,,29,21,06,208,45*7D
13:20:20  $GPGSV,4,3,15,24,23,174,48,25,,,53,29,57,279,53,31,19,317,*4E
13:20:20  $GPGSV,4,4,15,32,06,269,45,39,47,190,34,40,40,144,34*46
13:20:20  $GPGLL,3656.45396,N,03110.15239,E,132020.00,A,A*6F
13:20:20  $GPZDA,132020.00,19,04,2019,00,00*62
13:20:21  $GPRMC,132021.00,A,3656.45400,N,03110.15240,E,0.085,,190419,,,A*78
13:20:21  $GPVTG,,T,,M,0.085,N,0.158,K,A*22
13:20:21  $GPGGA,132021.00,3656.45400,N,03110.15240,E,1,08,0.80,-49.2,M,30.9,M,,*45
13:20:21  $GPGSA,A,3,21,14,06,29,31,32,05,24,,,,,1.76,0.80,1.56*03
13:20:21  $GPGSV,4,1,14,02,,,52,04,,,33,05,15,113,46,06,11,039,46*76
13:20:21  $GPGSV,4,2,14,12,,,52,14,09,285,45,21,06,208,46,24,23,174,48*48
13:20:21  $GPGSV,4,3,14,25,,,50,29,57,279,53,31,19,317,47,32,06,269,45*4D
13:20:21  $GPGSV,4,4,14,37,46,196,33,40,40,144,34*72
13:20:21  $GPGLL,3656.45400,N,03110.15240,E,132021.00,A,A*68
13:20:21  $GPZDA,132021.00,19,04,2019,00,00*63
13:20:22  $GPRMC,132022.00,A,3656.45413,N,03110.15213,E,0.011,,190419,,,A*72
13:20:22  $GPVTG,,T,,M,0.011,N,0.020,K,A*21
13:20:22  $GPGGA,132022.00,3656.45413,N,03110.15213,E,1,08,0.80,-48.8,M,30.9,M,,*49
13:20:22  $GPGSA,A,3,21,14,06,29,31,32,05,24,,,,,1.76,0.80,1.56*03
13:20:22  $GPGSV,5,1,18,01,,,33,02,,,52,03,,,32,04,,,33*76
13:20:22  $GPGSV,5,2,18,05,15,113,47,06,11,039,46,07,,,33,08,,,33*77
13:20:22  $GPGSV,5,3,18,12,,,52,14,09,285,46,21,06,208,46,24,23,174,48*47
13:20:22  $GPGSV,5,4,18,25,,,52,29,57,279,53,31,19,317,47,32,06,269,45*45
13:20:22  $GPGSV,5,5,18,37,46,196,33,39,47,190,34*7E
13:20:22  $GPGLL,3656.45413,N,03110.15213,E,132022.00,A,A*6F
13:20:22  $GPZDA,132022.00,19,04,2019,00,00*60
13:20:23  $GPRMC,132023.00,A,3656.45422,N,03110.15200,E,0.007,,190419,,,A*74
13:20:23  $GPVTG,,T,,M,0.007,N,0.013,K,A*26
13:20:23  $GPGGA,132023.00,3656.45422,N,03110.15200,E,1,08,0.84,-47.1,M,30.9,M,,*4A
13:20:23  $GPGSA,A,3,21,14,06,29,31,32,05,24,,,,,4.05,0.84,3.96*08
13:20:23  $GPGSV,3,1,12,02,,,52,03,,,24,05,15,113,47,06,11,039,46*77
13:20:23  $GPGSV,3,2,12,12,,,51,14,09,285,46,21,06,208,46,24,23,174,48*49
13:20:23  $GPGSV,3,3,12,25,,,50,29,57,279,53,31,19,317,47,32,06,269,46*4F
13:20:23  $GPGLL,3656.45422,N,03110.15200,E,132023.00,A,A*6E
13:20:23  $GPZDA,132023.00,19,04,2019,00,00*61
13:20:24  $GPRMC,132024.00,A,3656.45433,N,03110.15203,E,0.012,,190419,,,A*74
13:20:24  $GPVTG,,T,,M,0.012,N,0.023,K,A*21
13:20:24  $GPGGA,132024.00,3656.45433,N,03110.15203,E,1,08,0.80,-47.5,M,30.9,M,,*4E
13:20:24  $GPGSA,A,3,21,14,06,29,31,32,05,24,,,,,1.76,0.80,1.56*03
13:20:24  $GPGSV,4,1,15,02,,,51,05,15,113,45,06,11,039,45,07,,,38*7C
13:20:24  $GPGSV,4,2,15,08,,,33,12,,,52,14,09,285,44,21,06,208,45*7A
13:20:24  $GPGSV,4,3,15,24,23,174,47,25,,,53,27,,,33,29,57,279,52*7A
13:20:24  $GPGSV,4,4,15,31,19,317,46,32,06,269,44,40,40,144,32*4A
13:20:24  $GPGLL,3656.45433,N,03110.15203,E,132024.00,A,A*6A
13:20:24  $GPZDA,132024.00,19,04,2019,00,00*66
13:20:25  $GPRMC,132025.00,A,3656.45507,N,03110.15195,E,0.080,,190419,,,A*74
13:20:25  $GPVTG,,T,,M,0.080,N,0.148,K,A*26
13:20:25  $GPGGA,132025.00,3656.45507,N,03110.15195,E,1,03,1.83,-42.5,M,30.9,M,,*49
13:20:25  $GPGSA,A,2,21,32,05,,,,,,,,,,2.09,1.83,1.00*04
13:20:25  $GPGSV,3,1,12,02,,,22,05,15,113,25,06,11,039,21,08,,,12*7B
13:20:25  $GPGSV,3,2,12,09,,,20,10,,,21,14,09,285,19,21,06,208,20*74
13:20:25  $GPGSV,3,3,12,24,23,174,,29,57,279,,31,19,317,,32,06,269,17*79
13:20:25  $GPGLL,3656.45507,N,03110.15195,E,132025.00,A,A*61
13:20:25  $GPZDA,132025.00,19,04,2019,00,00*67
13:20:26  $GPRMC,132026.00,V,,,,,,,190419,,,N*7D
13:20:26  $GPVTG,,,,,,,,,N*30
13:20:26  $GPGGA,132026.00,,,,,0,00,99.99,,,,,,*62
13:20:26  $GPGSA,A,1,,,,,,,,,,,,,99.99,99.99,99.99*30
13:20:26  $GPGSV,3,1,12,02,,,17,05,15,113,,06,11,039,15,08,,,05*7B
13:20:26  $GPGSV,3,2,12,09,,,15,10,,,15,14,09,285,11,21,06,208,12*7C
13:20:26  $GPGSV,3,3,12,24,23,174,,29,57,279,,31,19,317,,32,06,269,08*77
13:20:26  $GPGLL,,,,,132026.00,V,N*4E
13:20:26  $GPZDA,132026.00,19,04,2019,00,00*64
13:20:27  $GPRMC,132027.00,V,,,,,,,190419,,,N*7C
13:20:27  $GPVTG,,,,,,,,,N*30
13:20:27  $GPGGA,132027.00,,,,,0,00,99.99,,,,,,*63
13:20:27  $GPGSA,A,1,,,,,,,,,,,,,99.99,99.99,99.99*30
13:20:27  $GPGSV,3,1,09,02,,,15,05,15,113,01,06,11,039,11,14,09,285,09*41
13:20:27  $GPGSV,3,2,09,21,06,208,09,24,23,174,01,29,57,279,01,31,19,317,*78
13:20:27  $GPGSV,3,3,09,32,06,269,07*4D
13:20:27  $GPGLL,,,,,132027.00,V,N*4F
13:20:27  $GPZDA,132027.00,19,04,2019,00,00*65
13:20:28  $GPRMC,132028.00,V,,,,,,,190419,,,N*73
13:20:28  $GPVTG,,,,,,,,,N*30
13:20:28  $GPGGA,132028.00,,,,,0,00,99.99,,,,,,*6C
13:20:28  $GPGSA,A,1,,,,,,,,,,,,,99.99,99.99,99.99*30
13:20:28  $GPGSV,3,1,09,02,,,14,05,15,113,02,06,11,039,13,14,09,285,12*4B
13:20:28  $GPGSV,3,2,09,21,06,208,11,24,23,174,01,29,57,279,02,31,19,317,01*73
13:20:28  $GPGSV,3,3,09,32,06,269,08*42
13:20:28  $GPGLL,,,,,132028.00,V,N*40
13:20:28  $GPZDA,132028.00,19,04,2019,00,00*6A
13:20:29  $GPRMC,132029.00,V,,,,,,,190419,,,N*72
13:20:29  $GPVTG,,,,,,,,,N*30
13:20:29  $GPGGA,132029.00,,,,,0,04,1.29,,,,,,*53
13:20:29  $GPGSA,A,1,21,14,06,32,,,,,,,,,1.63,1.29,1.00*0E
13:20:29  $GPGSV,3,1,09,02,,,13,05,15,113,05,06,11,039,13,14,09,285,16*4F
13:20:29  $GPGSV,3,2,09,21,06,208,16,24,23,174,04,29,57,279,05,31,19,317,04*73
13:20:29  $GPGSV,3,3,09,32,06,269,13*48
13:20:29  $GPGLL,,,,,132029.00,V,N*41
13:20:29  $GPZDA,132029.00,19,04,2019,00,00*6B
13:20:30  $GPRMC,132030.00,V,,,,,,,190419,,,N*7A
13:20:30  $GPVTG,,,,,,,,,N*30
13:20:30  $GPGGA,132030.00,,,,,0,04,1.29,,,,,,*5B
13:20:30  $GPGSA,A,1,21,14,06,32,,,,,,,,,1.63,1.29,1.00*0E
13:20:30  $GPGSV,3,1,09,02,,,14,05,15,113,05,06,11,039,11,14,09,285,14*48
13:20:30  $GPGSV,3,2,09,21,06,208,14,24,23,174,05,29,57,279,05,31,19,317,04*70
13:20:30  $GPGSV,3,3,09,32,06,269,14*4F
13:20:30  $GPGLL,,,,,132030.00,V,N*49
13:20:30  $GPZDA,132030.00,19,04,2019,00,00*63
13:20:31  $GPRMC,132031.00,V,,,,,,,190419,,,N*7B
13:20:31  $GPVTG,,,,,,,,,N*30
13:20:31  $GPGGA,132031.00,,,,,0,03,8.91,,,,,,*57
13:20:31  $GPGSA,A,1,21,14,32,,,,,,,,,,8.97,8.91,1.00*00
13:20:31  $GPGSV,3,1,09,02,,,13,05,15,113,,06,11,039,09,14,09,285,12*45
13:20:31  $GPGSV,3,2,09,21,06,208,12,24,23,174,,29,57,279,,31,19,317,*72
13:20:31  $GPGSV,3,3,09,32,06,269,11*4A
13:20:31  $GPGLL,,,,,132031.00,V,N*48
13:20:31  $GPZDA,132031.00,19,04,2019,00,00*62
13:20:32  $GPRMC,132032.00,V,,,,,,,190419,,,N*78
13:20:32  $GPVTG,,,,,,,,,N*30
13:20:32  $GPGGA,132032.00,,,,,0,00,99.99,,,,,,*67
13:20:32  $GPGSA,A,1,,,,,,,,,,,,,99.99,99.99,99.99*30
13:20:32  $GPGSV,3,1,09,02,,,11,05,15,113,,06,11,039,07,14,09,285,11*4A
13:20:32  $GPGSV,3,2,09,21,06,208,12,24,23,174,,29,57,279,,31,19,317,*72
13:20:32  $GPGSV,3,3,09,32,06,269,09*43
13:20:32  $GPGLL,,,,,132032.00,V,N*4B
13:20:32  $GPZDA,132032.00,19,04,2019,00,00*61
13:20:33  $GPRMC,132033.00,V,,,,,,,190419,,,N*79
13:20:33  $GPVTG,,,,,,,,,N*30
13:20:33  $GPGGA,132033.00,,,,,0,00,99.99,,,,,,*66
13:20:33  $GPGSA,A,1,,,,,,,,,,,,,99.99,99.99,99.99*30
13:20:33  $GPGSV,3,1,09,02,,,09,05,15,113,,06,11,039,07,14,09,285,11*43
13:20:33  $GPGSV,3,2,09,21,06,208,12,24,23,174,,29,57,279,,31,19,317,*72
13:20:33  $GPGSV,3,3,09,32,06,269,08*42
13:20:33  $GPGLL,,,,,132033.00,V,N*4A
13:20:33  $GPZDA,132033.00,19,04,2019,00,00*60
13:20:34  $GPRMC,132034.00,V,,,,,,,190419,,,N*7E
13:20:34  $GPVTG,,,,,,,,,N*30
13:20:34  $GPGGA,132034.00,,,,,0,00,99.99,,,,,,*61
13:20:34  $GPGSA,A,1,,,,,,,,,,,,,99.99,99.99,99.99*30
13:20:34  $GPGSV,3,1,09,02,,,08,05,15,113,,06,11,039,07,14,09,285,11*42
13:20:34  $GPGSV,3,2,09,21,06,208,12,24,23,174,,29,57,279,,31,19,317,*72
13:20:34  $GPGSV,3,3,09,32,06,269,08*42
13:20:34  $GPGLL,,,,,132034.00,V,N*4D
13:20:34  $GPZDA,132034.00,19,04,2019,00,00*67
13:20:35  $GPRMC,132035.00,V,,,,,,,190419,,,N*7F
13:20:35  $GPVTG,,,,,,,,,N*30
13:20:35  $GPGGA,132035.00,,,,,0,00,99.99,,,,,,*60
13:20:35  $GPGSA,A,1,,,,,,,,,,,,,99.99,99.99,99.99*30
13:20:35  $GPGSV,3,1,09,02,,,08,05,15,113,,06,11,039,07,14,09,285,11*42
13:20:35  $GPGSV,3,2,09,21,06,208,12,24,23,174,,29,57,279,,31,19,317,*72
13:20:35  $GPGSV,3,3,09,32,06,269,08*42
13:20:35  $GPGLL,,,,,132035.00,V,N*4C
13:20:35  $GPZDA,132035.00,19,04,2019,00,00*66
13:20:36  $GPRMC,132036.00,V,,,,,,,190419,,,N*7C
13:20:36  $GPVTG,,,,,,,,,N*30
13:20:36  $GPGGA,132036.00,,,,,0,00,99.99,,,,,,*63
13:20:36  $GPGSA,A,1,,,,,,,,,,,,,99.99,99.99,99.99*30
13:20:36  $GPGSV,3,1,09,02,,,08,05,15,113,,06,11,039,07,14,09,285,11*42
13:20:36  $GPGSV,3,2,09,21,06,208,12,24,23,174,,29,57,279,,31,19,317,*72
13:20:36  $GPGSV,3,3,09,32,06,269,08*42
13:20:36  $GPGLL,,,,,132036.00,V,N*4F
13:20:36  $GPZDA,132036.00,19,04,2019,00,00*65
13:20:37  $GPRMC,132037.00,V,,,,,,,190419,,,N*7D
13:20:37  $GPVTG,,,,,,,,,N*30
13:20:37  $GPGGA,132037.00,,,,,0,00,99.99,,,,,,*62
13:20:37  $GPGSA,A,1,,,,,,,,,,,,,99.99,99.99,99.99*30
13:20:37  $GPGSV,3,1,09,02,,,08,05,15,113,,06,11,039,07,14,09,285,11*42
13:20:37  $GPGSV,3,2,09,21,06,208,,24,23,174,,29,57,279,,31,19,317,*71
13:20:37  $GPGSV,3,3,09,32,06,269,08*42
13:20:37  $GPGLL,,,,,132037.00,V,N*4E
13:20:37  $GPZDA,132037.00,19,04,2019,00,00*64
13:20:38  $GPRMC,132038.00,V,,,,,,,190419,,,N*72
13:20:38  $GPVTG,,,,,,,,,N*30
13:20:38  $GPGGA,132038.00,,,,,0,00,99.99,,,,,,*6D
13:20:38  $GPGSA,A,1,,,,,,,,,,,,,99.99,99.99,99.99*30
13:20:38  $GPGSV,3,1,09,02,,,07,05,15,113,,06,11,039,09,14,09,285,07*44
13:20:38  $GPGSV,3,2,09,21,06,208,,24,23,174,,29,57,279,,31,19,317,*71
13:20:38  $GPGSV,3,3,09,32,06,269,07*4D
13:20:38  $GPGLL,,,,,132038.00,V,N*41
13:20:38  $GPZDA,132038.00,19,04,2019,00,00*6B
13:20:39  $GPRMC,132039.00,V,,,,,,,190419,,,N*73
13:20:39  $GPVTG,,,,,,,,,N*30
13:20:39  $GPGGA,132039.00,,,,,0,00,99.99,,,,,,*6C
13:20:39  $GPGSA,A,1,,,,,,,,,,,,,99.99,99.99,99.99*30
13:20:39  $GPGSV,3,1,09,02,,,07,05,15,113,,06,11,039,09,14,09,285,07*44
13:20:39  $GPGSV,3,2,09,21,06,208,,24,23,174,,29,57,279,,31,19,317,*71
13:20:39  $GPGSV,3,3,09,32,06,269,07*4D
13:20:39  $GPGLL,,,,,132039.00,V,N*40
13:20:39  $GPZDA,132039.00,19,04,2019,00,00*6A
13:20:40  $GPRMC,132040.00,V,,,,,,,190419,,,N*7D
13:20:40  $GPVTG,,,,,,,,,N*30
13:20:40  $GPGGA,132040.00,,,,,0,00,99.99,,,,,,*62
13:20:40  $GPGSA,A,1,,,,,,,,,,,,,99.99,99.99,99.99*30
13:20:40  $GPGSV,3,1,09,02,,,07,05,15,113,,06,11,039,09,14,09,285,07*44
